date2,unixtime,county,state,postal,lat,lon,county_full,countytext,population_2010,countyfips,county_id,county_original_name,active,confirmed,deaths
Thu Mar 19 22:41:38 PDT 2020,1584682898,Snohomish,Washington,WA,48.054913,-121.766412,Snohomish County,WA SNOHOMISH,713335,53061,61,Snohomish,True,347,6
Thu Mar 19 22:41:38 PDT 2020,1584682898,Cook,Illinois,IL,41.894294,-87.645455,Cook County,IL COOK,5194675,17031,31,Cook,True,278,2
Thu Mar 19 22:41:38 PDT 2020,1584682898,Orange,California,CA,33.675687,-117.777207,Orange County,CA ORANGE,3010232,6059,59,Orange,True,53,0
Thu Mar 19 22:41:38 PDT 2020,1584682898,Los Angeles,California,CA,34.196398,-118.261862,Los Angeles County,CA LOS ANGELES,9818605,6037,37,Los Angeles,True,231,2
Thu Mar 19 22:41:38 PDT 2020,1584682898,Maricopa,Arizona,AZ,33.346541,-112.495534,Maricopa County,AZ MARICOPA,3817117,4013,13,Maricopa,True,22,0
Thu Mar 19 22:41:38 PDT 2020,1584682898,Santa Clara,California,CA,37.220777,-121.690622,Santa Clara County,CA SANTA CLARA,1781642,6085,85,Santa Clara,True,189,6
Thu Mar 19 22:41:38 PDT 2020,1584682898,Suffolk,Massachusetts,MA,42.33196,-71.020173,Suffolk County,MA SUFFOLK,722023,25025,25,Suffolk,True,72,0
Thu Mar 19 22:41:38 PDT 2020,1584682898,San Francisco,California,CA,37.765064,-122.443535,San Francisco County,CA SAN FRANCISCO,805235,6075,75,San Francisco,True,73,0
Thu Mar 19 22:41:38 PDT 2020,1584682898,Dane,Wisconsin,WI,43.067468,-89.417852,Dane County,WI DANE,488073,55025,25,Dane,True,27,0
Thu Mar 19 22:41:38 PDT 2020,1584682898,San Diego,California,CA,33.023604,-116.776117,San Diego County,CA SAN DIEGO,3095313,6073,73,San Diego,True,105,0
Thu Mar 19 22:41:38 PDT 2020,1584682898,Bexar,Texas,TX,29.448671,-98.520147,Bexar County,TX BEXAR,1714773,48029,29,Bexar,True,17,0
Thu Mar 19 22:41:38 PDT 2020,1584682898,Douglas,Nebraska,NE,41.297091,-96.154066,Douglas County,NE DOUGLAS,517110,31055,55,Douglas,True,37,0
Thu Mar 19 22:41:38 PDT 2020,1584682898,Marin,California,CA,38.051817,-122.745974,Marin County,CA MARIN,252409,6041,41,Marin,True,16,0
Thu Mar 19 22:41:38 PDT 2020,1584682898,Sonoma,California,CA,38.532574,-122.945194,Sonoma County,CA SONOMA,483878,6097,97,Sonoma,True,4,0
Thu Mar 19 22:41:38 PDT 2020,1584682898,Sacramento,California,CA,38.450011,-121.340441,Sacramento County,CA SACRAMENTO,1418788,6067,67,Sacramento,True,44,3
Thu Mar 19 22:41:38 PDT 2020,1584682898,Solano,California,CA,38.267226,-121.939594,Solano County,CA SOLANO,413344,6095,95,Solano,True,15,0
Thu Mar 19 22:41:38 PDT 2020,1584682898,Napa,California,CA,38.507351,-122.325995,Napa County,CA NAPA,136484,6055,55,Napa,True,1,0
Thu Mar 19 22:41:38 PDT 2020,1584682898,Humboldt,California,CA,40.706673,-123.925818,Humboldt County,CA HUMBOLDT,134623,6023,23,Humboldt,True,1,0
Thu Mar 19 22:41:38 PDT 2020,1584682898,Spokane,Washington,WA,47.620379,-117.404392,Spokane County,WA SPOKANE,471221,53063,63,Spokane,True,9,0
Thu Mar 19 22:41:38 PDT 2020,1584682898,Salt Lake,Utah,UT,40.667882,-111.924244,Salt Lake County,UT SALT LAKE,1029655,49035,35,Salt Lake,True,31,0
Thu Mar 19 22:41:38 PDT 2020,1584682898,Washington,Oregon,OR,45.553542,-123.097615,Washington County,OR WASHINGTON,529710,41067,67,Washington,True,25,1
Thu Mar 19 22:41:38 PDT 2020,1584682898,King,Washington,WA,47.493554,-121.832375,King County,WA KING,1931249,53033,33,King,True,693,61
Thu Mar 19 22:41:38 PDT 2020,1584682898,Unknown,Rhode Island,RI,,,,,,,,Unknown,True,44,0
Thu Mar 19 22:41:38 PDT 2020,1584682898,Alameda,California,CA,37.648081,-121.913304,Alameda County,CA ALAMEDA,1510271,6001,1,Alameda,True,57,0
Thu Mar 19 22:41:38 PDT 2020,1584682898,New York,New York,NY,40.776557,-73.970174,New York County,NY NEW YORK,1585873,36061,61,New York,True,2468,22
Thu Mar 19 22:41:38 PDT 2020,1584682898,Manatee,Florida,FL,27.481386,-82.365783,Manatee County,FL MANATEE,322833,12081,81,Manatee,True,9,1
Thu Mar 19 22:41:38 PDT 2020,1584682898,Hillsborough,Florida,FL,27.90659,-82.349568,Hillsborough County,FL HILLSBOROUGH,1229226,12057,57,Hillsborough,True,20,0
Thu Mar 19 22:41:38 PDT 2020,1584682898,Walla Walla,Washington,WA,46.254606,-118.480374,Walla Walla County,WA WALLA WALLA,58781,53071,71,Walla Walla,True,1,0
Thu Mar 19 22:41:38 PDT 2020,1584682898,Grafton,New Hampshire,NH,43.926488,-71.842264,Grafton County,NH GRAFTON,89118,33009,9,Grafton,True,9,0
Thu Mar 19 22:41:38 PDT 2020,1584682898,Placer,California,CA,39.062032,-120.722718,Placer County,CA PLACER,348432,6061,61,Placer,True,9,1
Thu Mar 19 22:41:38 PDT 2020,1584682898,Norfolk,Massachusetts,MA,42.169702,-71.179875,Norfolk County,MA NORFOLK,670850,25021,21,Norfolk,True,52,0
Thu Mar 19 22:41:38 PDT 2020,1584682898,Fulton,Georgia,GA,33.790034,-84.468182,Fulton County,GA FULTON,920581,13121,121,Fulton,True,68,2
Thu Mar 19 22:41:38 PDT 2020,1584682898,San Mateo,California,CA,37.414664,-122.371542,San Mateo County,CA SAN MATEO,718451,6081,81,San Mateo,True,89,1
Thu Mar 19 22:41:38 PDT 2020,1584682898,Wake,North Carolina,NC,35.789846,-78.650624,Wake County,NC WAKE,900993,37183,183,Wake,True,25,0
Thu Mar 19 22:41:38 PDT 2020,1584682898,Contra Costa,California,CA,37.919479,-121.951543,Contra Costa County,CA CONTRA COSTA,1049025,6013,13,Contra Costa,True,42,0
Thu Mar 19 22:41:38 PDT 2020,1584682898,Westchester,New York,NY,41.15277,-73.745912,Westchester County,NY WESTCHESTER,949113,36119,119,Westchester,True,797,0
Thu Mar 19 22:41:38 PDT 2020,1584682898,Fort Bend,Texas,TX,29.526602,-95.771015,Fort Bend County,TX FORT BEND,585375,48157,157,Fort Bend,True,19,0
Thu Mar 19 22:41:38 PDT 2020,1584682898,Bergen,New Jersey,NJ,40.95909,-74.074522,Bergen County,NJ BERGEN,905116,34003,3,Bergen,True,195,2
Thu Mar 19 22:41:38 PDT 2020,1584682898,Chelan,Washington,WA,47.859891,-120.618543,Chelan County,WA CHELAN,72453,53007,7,Chelan,True,3,1
Thu Mar 19 22:41:38 PDT 2020,1584682898,Williamson,Tennessee,TN,35.894972,-86.896958,Williamson County,TN WILLIAMSON,183182,47187,187,Williamson,True,30,0
Thu Mar 19 22:41:38 PDT 2020,1584682898,Santa Rosa,Florida,FL,30.703633,-87.014255,Santa Rosa County,FL SANTA ROSA,151372,12113,113,Santa Rosa,True,2,1
Thu Mar 19 22:41:38 PDT 2020,1584682898,Nassau,New York,NY,40.729687,-73.589384,Nassau County,NY NASSAU,1339532,36059,59,Nassau,True,382,2
Thu Mar 19 22:41:38 PDT 2020,1584682898,Harris,Texas,TX,29.857273,-95.393037,Harris County,TX HARRIS,4092459,48201,201,Harris,True,34,1
Thu Mar 19 22:41:38 PDT 2020,1584682898,Jefferson,Colorado,CO,39.58646,-105.245601,Jefferson County,CO JEFFERSON,534543,8059,59,Jefferson,True,36,0
Thu Mar 19 22:41:38 PDT 2020,1584682898,Montgomery,Maryland,MD,39.137381,-77.203063,Montgomery County,MD MONTGOMERY,971777,24031,31,Montgomery,True,33,0
Thu Mar 19 22:41:38 PDT 2020,1584682898,Douglas,Colorado,CO,39.326435,-104.926199,Douglas County,CO DOUGLAS,285465,8035,35,Douglas,True,14,0
Thu Mar 19 22:41:38 PDT 2020,1584682898,Middlesex,Massachusetts,MA,42.479477,-71.396507,Middlesex County,MA MIDDLESEX,1503085,25017,17,Middlesex,True,119,0
Thu Mar 19 22:41:38 PDT 2020,1584682898,Clark,Nevada,NV,36.214236,-115.013819,Clark County,NV CLARK,1951269,32003,3,Clark,True,74,1
Thu Mar 19 22:41:38 PDT 2020,1584682898,Washoe,Nevada,NV,40.703311,-119.710315,Washoe County,NV WASHOE,421407,32031,31,Washoe,True,14,0
Thu Mar 19 22:41:38 PDT 2020,1584682898,Wayne,Pennsylvania,PA,41.646589,-75.292485,Wayne County,PA WAYNE,52822,42127,127,Wayne,True,1,0
Thu Mar 19 22:41:38 PDT 2020,1584682898,Delaware,Pennsylvania,PA,39.91667,-75.398786,Delaware County,PA DELAWARE,558979,42045,45,Delaware,True,14,0
Thu Mar 19 22:41:38 PDT 2020,1584682898,Polk,Georgia,GA,33.995961,-85.186826,Polk County,GA POLK,41475,13233,233,Polk,True,1,0
Thu Mar 19 22:41:38 PDT 2020,1584682898,Chatham,North Carolina,NC,35.704994,-79.251454,Chatham County,NC CHATHAM,63505,37037,37,Chatham,True,3,0
Thu Mar 19 22:41:38 PDT 2020,1584682898,Pinal,Arizona,AZ,32.91891,-111.367257,Pinal County,AZ PINAL,375770,4021,21,Pinal,True,10,0
Thu Mar 19 22:41:38 PDT 2020,1584682898,Marion,Indiana,IN,39.782976,-86.135794,Marion County,IN MARION,903393,18097,97,Marion,True,19,1
Thu Mar 19 22:41:38 PDT 2020,1584682898,Rockland,New York,NY,41.154785,-74.024772,Rockland County,NY ROCKLAND,311687,36087,87,Rockland,True,53,2
Thu Mar 19 22:41:38 PDT 2020,1584682898,Yolo,California,CA,38.679268,-121.903178,Yolo County,CA YOLO,200849,6113,113,Yolo,True,5,0
Thu Mar 19 22:41:38 PDT 2020,1584682898,Camden,New Jersey,NJ,39.802352,-74.961251,Camden County,NJ CAMDEN,513657,34007,7,Camden,True,13,0
Thu Mar 19 22:41:38 PDT 2020,1584682898,Ramsey,Minnesota,MN,45.01525,-93.100141,Ramsey County,MN RAMSEY,508640,27123,123,Ramsey,True,12,0
Thu Mar 19 22:41:38 PDT 2020,1584682898,Jefferson,Washington,WA,47.802641,-123.52181,Jefferson County,WA JEFFERSON,29872,53031,31,Jefferson,True,4,0
Thu Mar 19 22:41:38 PDT 2020,1584682898,Fayette,Kentucky,KY,38.040157,-84.458443,Fayette County,KY FAYETTE,295803,21067,67,Fayette,True,7,0
Thu Mar 19 22:41:38 PDT 2020,1584682898,Tulsa,Oklahoma,OK,36.12012,-95.941731,Tulsa County,OK TULSA,603403,40143,143,Tulsa,True,5,1
Thu Mar 19 22:41:38 PDT 2020,1584682898,Denver,Colorado,CO,39.761849,-104.880625,Denver County,CO DENVER,600158,8031,31,Denver,True,49,0
Thu Mar 19 22:41:38 PDT 2020,1584682898,Eagle,Colorado,CO,39.630638,-106.692944,Eagle County,CO EAGLE,52197,8037,37,Eagle,True,51,0
Thu Mar 19 22:41:38 PDT 2020,1584682898,El Paso,Colorado,CO,38.827383,-104.527472,El Paso County,CO EL PASO,622263,8041,41,El Paso,True,15,2
Thu Mar 19 22:41:38 PDT 2020,1584682898,Kershaw,South Carolina,SC,34.338356,-80.590885,Kershaw County,SC KERSHAW,61697,45055,55,Kershaw,True,29,0
Thu Mar 19 22:41:38 PDT 2020,1584682898,Charleston,South Carolina,SC,32.800458,-79.94248,Charleston County,SC CHARLESTON,350209,45019,19,Charleston,True,5,0
Thu Mar 19 22:41:38 PDT 2020,1584682898,Honolulu,Hawaii,HI,21.461364,-158.201976,Honolulu County,HI HONOLULU,953207,15003,3,Honolulu,True,14,0
Thu Mar 19 22:41:38 PDT 2020,1584682898,Pierce,Washington,WA,47.040716,-122.144709,Pierce County,WA PIERCE,795225,53053,53,Pierce,True,75,1
Thu Mar 19 22:41:38 PDT 2020,1584682898,Lee,Florida,FL,26.552134,-81.89225,Lee County,FL LEE,618754,12071,71,Lee,True,11,2
Thu Mar 19 22:41:38 PDT 2020,1584682898,Broward,Florida,FL,26.19352,-80.476658,Broward County,FL BROWARD,1748066,12011,11,Broward,True,96,1
Thu Mar 19 22:41:38 PDT 2020,1584682898,Davis,Utah,UT,41.037045,-112.202123,Davis County,UT DAVIS,306479,49011,11,Davis,True,8,0
Thu Mar 19 22:41:38 PDT 2020,1584682898,Clark,Washington,WA,45.771674,-122.485903,Clark County,WA CLARK,425363,53011,11,Clark,True,4,3
Thu Mar 19 22:41:38 PDT 2020,1584682898,Gwinnett,Georgia,GA,33.959101,-84.022938,Gwinnett County,GA GWINNETT,805321,13135,135,Gwinnett,True,12,0
Thu Mar 19 22:41:38 PDT 2020,1584682898,Cobb,Georgia,GA,33.93994,-84.574166,Cobb County,GA COBB,688078,13067,67,Cobb,True,37,1
Thu Mar 19 22:41:38 PDT 2020,1584682898,Madera,California,CA,37.210039,-119.749852,Madera County,CA MADERA,150865,6039,39,Madera,True,3,0
Thu Mar 19 22:41:38 PDT 2020,1584682898,Jackson,Oregon,OR,42.411782,-122.675797,Jackson County,OR JACKSON,203206,41029,29,Jackson,True,2,0
Thu Mar 19 22:41:38 PDT 2020,1584682898,Klamath,Oregon,OR,42.683761,-121.646168,Klamath County,OR KLAMATH,66380,41035,35,Klamath,True,1,0
Thu Mar 19 22:41:38 PDT 2020,1584682898,Kittitas,Washington,WA,47.124444,-120.676714,Kittitas County,WA KITTITAS,40915,53037,37,Kittitas,True,4,0
Thu Mar 19 22:41:38 PDT 2020,1584682898,Saratoga,New York,NY,43.106135,-73.855387,Saratoga County,NY SARATOGA,219607,36091,91,Saratoga,True,14,0
Thu Mar 19 22:41:38 PDT 2020,1584682898,Berkshire,Massachusetts,MA,42.375314,-73.213948,Berkshire County,MA BERKSHIRE,131219,25003,3,Berkshire,True,18,0
Thu Mar 19 22:41:38 PDT 2020,1584682898,Charlotte,Florida,FL,26.868826,-81.940858,Charlotte County,FL CHARLOTTE,159978,12015,15,Charlotte,True,1,0
Thu Mar 19 22:41:38 PDT 2020,1584682898,Johnson,Kansas,KS,38.883907,-94.82233,Johnson County,KS JOHNSON,544179,20091,91,Johnson,True,16,0
Thu Mar 19 22:41:38 PDT 2020,1584682898,Montgomery,Pennsylvania,PA,40.209999,-75.370201,Montgomery County,PA MONTGOMERY,799874,42091,91,Montgomery,True,47,0
Thu Mar 19 22:41:38 PDT 2020,1584682898,District of Columbia,District of Columbia,DC,38.904149,-77.017094,District of Columbia,DC DISTRICT OF COLUMBIA,601723,11001,1,District of Columbia,True,39,0
Thu Mar 19 22:41:38 PDT 2020,1584682898,Santa Cruz,California,CA,37.012488,-122.007205,Santa Cruz County,CA SANTA CRUZ,262382,6087,87,Santa Cruz,True,2,0
Thu Mar 19 22:41:38 PDT 2020,1584682898,Fairfax,Virginia,VA,38.833742,-77.276117,Fairfax County,VA FAIRFAX,1081726,51059,59,Fairfax,True,16,0
Thu Mar 19 22:41:38 PDT 2020,1584682898,Okaloosa,Florida,FL,30.665858,-86.594194,Okaloosa County,FL OKALOOSA,180822,12091,91,Okaloosa,True,5,0
Thu Mar 19 22:41:38 PDT 2020,1584682898,Volusia,Florida,FL,29.057617,-81.161813,Volusia County,FL VOLUSIA,494593,12127,127,Volusia,True,9,0
Thu Mar 19 22:41:38 PDT 2020,1584682898,St. Louis,Missouri,MO,38.640702,-90.445954,St. Louis County,MO ST. LOUIS,998954,29189,189,St. Louis,True,10,0
Thu Mar 19 22:41:38 PDT 2020,1584682898,Fresno,California,CA,36.761006,-119.655019,Fresno County,CA FRESNO,930450,6019,19,Fresno,True,4,0
Thu Mar 19 22:41:38 PDT 2020,1584682898,Bennington,Vermont,VT,43.035325,-73.11146,Bennington County,VT BENNINGTON,37125,50003,3,Bennington,True,4,0
Thu Mar 19 22:41:38 PDT 2020,1584682898,Rockingham,New Hampshire,NH,42.98936,-71.099437,Rockingham County,NH ROCKINGHAM,295223,33015,15,Rockingham,True,18,0
Thu Mar 19 22:41:38 PDT 2020,1584682898,Riverside,California,CA,33.729828,-116.002239,Riverside County,CA RIVERSIDE,2189641,6065,65,Riverside,True,22,3
Thu Mar 19 22:41:38 PDT 2020,1584682898,Ulster,New York,NY,41.947232,-74.265447,Ulster County,NY ULSTER,182493,36111,111,Ulster,True,9,0
Thu Mar 19 22:41:38 PDT 2020,1584682898,Suffolk,New York,NY,40.943554,-72.692218,Suffolk County,NY SUFFOLK,1493350,36103,103,Suffolk,True,178,3
Thu Mar 19 22:41:38 PDT 2020,1584682898,Shelby,Tennessee,TN,35.183794,-89.895397,Shelby County,TN SHELBY,927644,47157,157,Shelby,True,10,0
Thu Mar 19 22:41:38 PDT 2020,1584682898,Davidson,Tennessee,TN,36.169129,-86.78479,Davidson County,TN DAVIDSON,626681,47037,37,Davidson,True,75,0
Thu Mar 19 22:41:38 PDT 2020,1584682898,Fairfield,Connecticut,CT,41.228103,-73.366757,Fairfield County,CT FAIRFIELD,916829,9001,1,Fairfield,True,102,1
Thu Mar 19 22:41:38 PDT 2020,1584682898,Hendricks,Indiana,IN,39.768749,-86.510286,Hendricks County,IN HENDRICKS,145448,18063,63,Hendricks,True,4,0
Thu Mar 19 22:41:38 PDT 2020,1584682898,Passaic,New Jersey,NJ,41.033763,-74.300307,Passaic County,NJ PASSAIC,501226,34031,31,Passaic,True,38,0
Thu Mar 19 22:41:38 PDT 2020,1584682898,Douglas,Oregon,OR,43.285904,-123.15438,Douglas County,OR DOUGLAS,107667,41019,19,Douglas,True,1,0
Thu Mar 19 22:41:38 PDT 2020,1584682898,Marion,Oregon,OR,44.900898,-122.57626,Marion County,OR MARION,315335,41047,47,Marion,True,13,0
Thu Mar 19 22:41:38 PDT 2020,1584682898,Worcester,Massachusetts,MA,42.311693,-71.940282,Worcester County,MA WORCESTER,798552,25027,27,Worcester,True,14,0
Thu Mar 19 22:41:38 PDT 2020,1584682898,Spartanburg,South Carolina,SC,34.933239,-81.991053,Spartanburg County,SC SPARTANBURG,284307,45083,83,Spartanburg,True,1,0
Thu Mar 19 22:41:38 PDT 2020,1584682898,Harford,Maryland,MD,39.537429,-76.299789,Harford County,MD HARFORD,244826,24025,25,Harford,True,3,0
Thu Mar 19 22:41:38 PDT 2020,1584682898,Kitsap,Washington,WA,47.639687,-122.649636,Kitsap County,WA KITSAP,251133,53035,35,Kitsap,True,12,0
Thu Mar 19 22:41:38 PDT 2020,1584682898,Harrison,Kentucky,KY,38.443489,-84.332796,Harrison County,KY HARRISON,18846,21097,97,Harrison,True,7,0
Thu Mar 19 22:41:38 PDT 2020,1584682898,Jefferson,Kentucky,KY,38.189533,-85.657624,Jefferson County,KY JEFFERSON,741096,21111,111,Jefferson,True,12,0
Thu Mar 19 22:41:38 PDT 2020,1584682898,Johnson,Iowa,IA,41.668736,-91.588812,Johnson County,IA JOHNSON,130882,19103,103,Johnson,True,22,0
Thu Mar 19 22:41:38 PDT 2020,1584682898,Carver,Minnesota,MN,44.821381,-93.800575,Carver County,MN CARVER,91042,27019,19,Carver,True,3,0
Thu Mar 19 22:41:38 PDT 2020,1584682898,Cherokee,Georgia,GA,34.244317,-84.475057,Cherokee County,GA CHEROKEE,214346,13057,57,Cherokee,True,16,0
Thu Mar 19 22:41:38 PDT 2020,1584682898,Larimer,Colorado,CO,40.663091,-105.482131,Larimer County,CO LARIMER,299630,8069,69,Larimer,True,5,0
Thu Mar 19 22:41:38 PDT 2020,1584682898,Collin,Texas,TX,33.193885,-96.578153,Collin County,TX COLLIN,782341,48085,85,Collin,True,18,1
Thu Mar 19 22:41:38 PDT 2020,1584682898,Jefferson,Louisiana,LA,29.5033,-90.036231,Jefferson Parish,LA JEFFERSON,432552,22051,51,Jefferson,True,69,1
Thu Mar 19 22:41:38 PDT 2020,1584682898,Monmouth,New Jersey,NJ,40.287056,-74.152446,Monmouth County,NJ MONMOUTH,630380,34025,25,Monmouth,True,43,1
Thu Mar 19 22:41:38 PDT 2020,1584682898,Union,New Jersey,NJ,40.659871,-74.308696,Union County,NJ UNION,536499,34039,39,Union,True,29,0
Thu Mar 19 22:41:38 PDT 2020,1584682898,Hudson,New Jersey,NJ,40.731384,-74.078627,Hudson County,NJ HUDSON,634266,34017,17,Hudson,True,55,0
Thu Mar 19 22:41:38 PDT 2020,1584682898,Cuyahoga,Ohio,OH,41.760392,-81.724217,Cuyahoga County,OH CUYAHOGA,1280122,39035,35,Cuyahoga,True,53,0
Thu Mar 19 22:41:38 PDT 2020,1584682898,Monroe,Pennsylvania,PA,41.056233,-75.329037,Monroe County,PA MONROE,169842,42089,89,Monroe,True,15,0
Thu Mar 19 22:41:38 PDT 2020,1584682898,Noble,Indiana,IN,41.400794,-85.41785,Noble County,IN NOBLE,47536,18113,113,Noble,True,1,0
Thu Mar 19 22:41:38 PDT 2020,1584682898,Pottawattamie,Iowa,IA,41.340184,-95.544905,Pottawattamie County,IA POTTAWATTAMIE,93158,19155,155,Pottawattamie,True,1,0
Thu Mar 19 22:41:38 PDT 2020,1584682898,Pierce,Wisconsin,WI,44.725336,-92.426279,Pierce County,WI PIERCE,41019,55093,93,Pierce,True,1,0
Thu Mar 19 22:41:38 PDT 2020,1584682898,Pima,Arizona,AZ,32.128237,-111.783018,Pima County,AZ PIMA,980263,4019,19,Pima,True,7,0
Thu Mar 19 22:41:38 PDT 2020,1584682898,Prince George's,Maryland,MD,38.82588,-76.847272,Prince George's County,MD PRINCE GEORGE'S,863420,24033,33,Prince George's,True,23,1
Thu Mar 19 22:41:38 PDT 2020,1584682898,Shasta,California,CA,40.760521,-122.04355,Shasta County,CA SHASTA,177223,6089,89,Shasta,True,1,0
Thu Mar 19 22:41:38 PDT 2020,1584682898,Fayette,Georgia,GA,33.412717,-84.493941,Fayette County,GA FAYETTE,106567,13113,113,Fayette,True,10,1
Thu Mar 19 22:41:38 PDT 2020,1584682898,DeKalb,Georgia,GA,33.770661,-84.226343,DeKalb County,GA DEKALB,691893,13089,89,DeKalb,True,22,0
Thu Mar 19 22:41:38 PDT 2020,1584682898,Virginia Beach city,Virginia,VA,36.779322,-76.02402,Virginia Beach city,VA VIRGINIA BEACH CITY,437994,51810,810,Virginia Beach city,True,4,0
Thu Mar 19 22:41:38 PDT 2020,1584682898,Arapahoe,Colorado,CO,39.644632,-104.331733,Arapahoe County,CO ARAPAHOE,572003,8005,5,Arapahoe,True,22,0
Thu Mar 19 22:41:38 PDT 2020,1584682898,Floyd,Georgia,GA,34.263677,-85.21373,Floyd County,GA FLOYD,96317,13115,115,Floyd,True,7,1
Thu Mar 19 22:41:38 PDT 2020,1584682898,Weber,Utah,UT,41.270355,-111.875879,Weber County,UT WEBER,231236,49057,57,Weber,True,4,0
Thu Mar 19 22:41:38 PDT 2020,1584682898,Adams,Indiana,IN,40.745733,-84.93613,Adams County,IN ADAMS,34387,18001,1,Adams,True,1,0
Thu Mar 19 22:41:38 PDT 2020,1584682898,Boone,Indiana,IN,40.050892,-86.469014,Boone County,IN BOONE,56640,18011,11,Boone,True,1,0
Thu Mar 19 22:41:38 PDT 2020,1584682898,Ventura,California,CA,34.358741,-119.133143,Ventura County,CA VENTURA,823318,6111,111,Ventura,True,13,0
Thu Mar 19 22:41:38 PDT 2020,1584682898,Gunnison,Colorado,CO,38.669679,-107.078108,Gunnison County,CO GUNNISON,15324,8051,51,Gunnison,True,13,0
Thu Mar 19 22:41:38 PDT 2020,1584682898,Burlington,New Jersey,NJ,39.875786,-74.663006,Burlington County,NJ BURLINGTON,448734,34005,5,Burlington,True,14,0
Thu Mar 19 22:41:38 PDT 2020,1584682898,Loudoun,Virginia,VA,39.08113,-77.638857,Loudoun County,VA LOUDOUN,312311,51107,107,Loudoun,True,5,0
Thu Mar 19 22:41:38 PDT 2020,1584682898,Sullivan,Tennessee,TN,36.510212,-82.299397,Sullivan County,TN SULLIVAN,156823,47163,163,Sullivan,True,1,0
Thu Mar 19 22:41:38 PDT 2020,1584682898,Philadelphia,Pennsylvania,PA,40.009376,-75.133346,Philadelphia County,PA PHILADELPHIA,1526006,42101,101,Philadelphia,True,33,0
Thu Mar 19 22:41:38 PDT 2020,1584682898,Anoka,Minnesota,MN,45.27411,-93.242723,Anoka County,MN ANOKA,330844,27003,3,Anoka,True,5,0
Thu Mar 19 22:41:38 PDT 2020,1584682898,Multnomah,Oregon,OR,45.547693,-122.417173,Multnomah County,OR MULTNOMAH,735334,41051,51,Multnomah,True,7,1
Thu Mar 19 22:41:38 PDT 2020,1584682898,Kane,Illinois,IL,41.939594,-88.42804,Kane County,IL KANE,515269,17089,89,Kane,True,6,0
Thu Mar 19 22:41:38 PDT 2020,1584682898,McHenry,Illinois,IL,42.324298,-88.452245,McHenry County,IL MCHENRY,308760,17111,111,McHenry,True,6,0
Thu Mar 19 22:41:38 PDT 2020,1584682898,Essex,Massachusetts,MA,42.642711,-70.865107,Essex County,MA ESSEX,743159,25009,9,Essex,True,19,0
Thu Mar 19 22:41:38 PDT 2020,1584682898,Orleans,Louisiana,LA,30.068636,-89.939007,Orleans Parish,LA ORLEANS,343829,22071,71,Orleans,True,249,8
Thu Mar 19 22:41:38 PDT 2020,1584682898,Davison,South Dakota,SD,43.680439,-98.155868,Davison County,SD DAVISON,19504,46035,35,Davison,True,2,1
Thu Mar 19 22:41:38 PDT 2020,1584682898,Beadle,South Dakota,SD,44.418265,-98.279422,Beadle County,SD BEADLE,17398,46005,5,Beadle,True,4,0
Thu Mar 19 22:41:38 PDT 2020,1584682898,Charles Mix,South Dakota,SD,43.206185,-98.595143,Charles Mix County,SD CHARLES MIX,9129,46023,23,Charles Mix,True,1,0
Thu Mar 19 22:41:38 PDT 2020,1584682898,Minnehaha,South Dakota,SD,43.667472,-96.795726,Minnehaha County,SD MINNEHAHA,169468,46099,99,Minnehaha,True,5,0
Thu Mar 19 22:41:38 PDT 2020,1584682898,Whatcom,Washington,WA,48.842653,-121.836432,Whatcom County,WA WHATCOM,201140,53073,73,Whatcom,True,7,0
Thu Mar 19 22:41:38 PDT 2020,1584682898,Dallas,Texas,TX,32.766987,-96.778424,Dallas County,TX DALLAS,2368139,48113,113,Dallas,True,56,0
Thu Mar 19 22:41:38 PDT 2020,1584682898,San Joaquin,California,CA,37.935034,-121.272237,San Joaquin County,CA SAN JOAQUIN,685306,6077,77,San Joaquin,True,17,2
Thu Mar 19 22:41:38 PDT 2020,1584682898,Tarrant,Texas,TX,32.77204,-97.291291,Tarrant County,TX TARRANT,1809034,48439,439,Tarrant,True,19,0
Thu Mar 19 22:41:38 PDT 2020,1584682898,Skagit,Washington,WA,48.493066,-121.816278,Skagit County,WA SKAGIT,116901,53057,57,Skagit,True,18,0
Thu Mar 19 22:41:38 PDT 2020,1584682898,Nassau,Florida,FL,30.605926,-81.764929,Nassau County,FL NASSAU,73314,12089,89,Nassau,True,1,0
Thu Mar 19 22:41:38 PDT 2020,1584682898,Alachua,Florida,FL,29.67574,-82.357221,Alachua County,FL ALACHUA,247336,12001,1,Alachua,True,11,0
Thu Mar 19 22:41:38 PDT 2020,1584682898,Collier,Florida,FL,26.118713,-81.400884,Collier County,FL COLLIER,321520,12021,21,Collier,True,18,0
Thu Mar 19 22:41:38 PDT 2020,1584682898,Pinellas,Florida,FL,27.903122,-82.739518,Pinellas County,FL PINELLAS,916542,12103,103,Pinellas,True,16,0
Thu Mar 19 22:41:38 PDT 2020,1584682898,Pasco,Florida,FL,28.302024,-82.455707,Pasco County,FL PASCO,464697,12101,101,Pasco,True,5,0
Thu Mar 19 22:41:38 PDT 2020,1584682898,Oakland,Michigan,MI,42.660452,-83.38421,Oakland County,MI OAKLAND,1202362,26125,125,Oakland,True,105,0
Thu Mar 19 22:41:38 PDT 2020,1584682898,Wayne,Michigan,MI,42.284664,-83.261953,Wayne County,MI WAYNE,1820584,26163,163,Wayne,True,119,3
Thu Mar 19 22:41:38 PDT 2020,1584682898,Charlton,Georgia,GA,30.779904,-82.139644,Charlton County,GA CHARLTON,12171,13049,49,Charlton,True,1,0
Thu Mar 19 22:41:38 PDT 2020,1584682898,Bucks,Pennsylvania,PA,40.336887,-75.10706,Bucks County,PA BUCKS,625249,42017,17,Bucks,True,12,0
Thu Mar 19 22:41:38 PDT 2020,1584682898,Montgomery,Texas,TX,30.302364,-95.503523,Montgomery County,TX MONTGOMERY,455746,48339,339,Montgomery,True,3,0
Thu Mar 19 22:41:38 PDT 2020,1584682898,Howard,Indiana,IN,40.483537,-86.114118,Howard County,IN HOWARD,82752,18067,67,Howard,True,5,0
Thu Mar 19 22:41:38 PDT 2020,1584682898,Johnson,Indiana,IN,39.495986,-86.0946,Johnson County,IN JOHNSON,139654,18081,81,Johnson,True,3,1
Thu Mar 19 22:41:38 PDT 2020,1584682898,Arlington,Virginia,VA,38.878337,-77.100703,Arlington County,VA ARLINGTON,207627,51013,13,Arlington,True,17,0
Thu Mar 19 22:41:38 PDT 2020,1584682898,Jefferson,Arkansas,AR,34.277695,-91.930701,Jefferson County,AR JEFFERSON,77435,5069,69,Jefferson,True,10,0
Thu Mar 19 22:41:38 PDT 2020,1584682898,Middlesex,New Jersey,NJ,40.439593,-74.407585,Middlesex County,NJ MIDDLESEX,809858,34023,23,Middlesex,True,64,0
Thu Mar 19 22:41:38 PDT 2020,1584682898,Socorro,New Mexico,NM,33.991614,-106.939003,Socorro County,NM SOCORRO,17866,35053,53,Socorro,True,2,0
Thu Mar 19 22:41:38 PDT 2020,1584682898,Bernalillo,New Mexico,NM,35.054002,-106.669064,Bernalillo County,NM BERNALILLO,662564,35001,1,Bernalillo,True,20,0
Thu Mar 19 22:41:38 PDT 2020,1584682898,Olmsted,Minnesota,MN,44.003429,-92.406722,Olmsted County,MN OLMSTED,144248,27109,109,Olmsted,True,6,0
Thu Mar 19 22:41:38 PDT 2020,1584682898,Pitkin,Colorado,CO,39.217533,-106.915943,Pitkin County,CO PITKIN,17148,8097,97,Pitkin,True,12,0
Thu Mar 19 22:41:38 PDT 2020,1584682898,Stark,Ohio,OH,40.814131,-81.365667,Stark County,OH STARK,375586,39151,151,Stark,True,5,0
Thu Mar 19 22:41:38 PDT 2020,1584682898,Thurston,Washington,WA,46.932598,-122.829441,Thurston County,WA THURSTON,252264,53067,67,Thurston,True,6,0
Thu Mar 19 22:41:38 PDT 2020,1584682898,St. Joseph,Indiana,IN,41.617699,-86.288159,St. Joseph County,IN ST. JOSEPH,266931,18141,141,St. Joseph,True,3,0
Thu Mar 19 22:41:38 PDT 2020,1584682898,New Castle,Delaware,DE,39.575915,-75.644132,New Castle County,DE NEW CASTLE,538479,10003,3,New Castle,True,23,0
Thu Mar 19 22:41:38 PDT 2020,1584682898,Lake,Illinois,IL,42.294764,-87.90787,Lake County,IL LAKE,703462,17097,97,Lake,True,37,0
Thu Mar 19 22:41:38 PDT 2020,1584682898,Polk,Oregon,OR,44.904395,-123.397329,Polk County,OR POLK,75403,41053,53,Polk,True,1,0
Thu Mar 19 22:41:38 PDT 2020,1584682898,Umatilla,Oregon,OR,45.5912,-118.73388,Umatilla County,OR UMATILLA,75889,41059,59,Umatilla,True,2,0
Thu Mar 19 22:41:38 PDT 2020,1584682898,Deschutes,Oregon,OR,43.915118,-121.225575,Deschutes County,OR DESCHUTES,157733,41017,17,Deschutes,True,6,0
Thu Mar 19 22:41:38 PDT 2020,1584682898,Lancaster,South Carolina,SC,34.686818,-80.703688,Lancaster County,SC LANCASTER,76652,45057,57,Lancaster,True,3,0
Thu Mar 19 22:41:38 PDT 2020,1584682898,Bon Homme,South Dakota,SD,42.986031,-97.885613,Bon Homme County,SD BON HOMME,7070,46009,9,Bon Homme,True,1,0
Thu Mar 19 22:41:38 PDT 2020,1584682898,Waukesha,Wisconsin,WI,43.019308,-88.306707,Waukesha County,WI WAUKESHA,389891,55133,133,Waukesha,True,12,0
Thu Mar 19 22:41:38 PDT 2020,1584682898,Fond du Lac,Wisconsin,WI,43.754722,-88.493284,Fond du Lac County,WI FOND DU LAC,101633,55039,39,Fond du Lac,True,14,1
Thu Mar 19 22:41:38 PDT 2020,1584682898,Caddo,Louisiana,LA,32.577195,-93.882423,Caddo Parish,LA CADDO,254969,22017,17,Caddo,True,10,0
Thu Mar 19 22:41:38 PDT 2020,1584682898,Island,Washington,WA,48.158436,-122.670503,Island County,WA ISLAND,78506,53029,29,Island,True,17,1
Thu Mar 19 22:41:38 PDT 2020,1584682898,Chittenden,Vermont,VT,44.460675,-73.070525,Chittenden County,VT CHITTENDEN,156545,50007,7,Chittenden,True,5,1
Thu Mar 19 22:41:38 PDT 2020,1584682898,Stanislaus,California,CA,37.562384,-121.002656,Stanislaus County,CA STANISLAUS,514453,6099,99,Stanislaus,True,5,0
Thu Mar 19 22:41:38 PDT 2020,1584682898,Baltimore,Maryland,MD,39.443167,-76.616569,Baltimore County,MD BALTIMORE,805029,24005,5,Baltimore,True,16,0
Thu Mar 19 22:41:38 PDT 2020,1584682898,Lowndes,Georgia,GA,30.83368,-83.268967,Lowndes County,GA LOWNDES,109233,13185,185,Lowndes,True,6,0
Thu Mar 19 22:41:38 PDT 2020,1584682898,Forrest,Mississippi,MS,31.18858,-89.259447,Forrest County,MS FORREST,74934,28035,35,Forrest,True,4,0
Thu Mar 19 22:41:38 PDT 2020,1584682898,Santa Fe,New Mexico,NM,35.513722,-105.966441,Santa Fe County,NM SANTA FE,144170,35049,49,Santa Fe,True,7,0
Thu Mar 19 22:41:38 PDT 2020,1584682898,Gregg,Texas,TX,32.486397,-94.816276,Gregg County,TX GREGG,121730,48183,183,Gregg,True,1,0
Thu Mar 19 22:41:38 PDT 2020,1584682898,Lee,Georgia,GA,31.818419,-84.146681,Lee County,GA LEE,28298,13177,177,Lee,True,3,0
Thu Mar 19 22:41:38 PDT 2020,1584682898,Bartow,Georgia,GA,34.240917,-84.838188,Bartow County,GA BARTOW,100157,13015,15,Bartow,True,27,0
Thu Mar 19 22:41:38 PDT 2020,1584682898,St. Johns,Florida,FL,29.890593,-81.383914,St. Johns County,FL ST. JOHNS,190039,12109,109,St. Johns,True,4,0
Thu Mar 19 22:41:38 PDT 2020,1584682898,Miami-Dade,Florida,FL,25.610494,-80.499045,Miami-Dade County,FL MIAMI-DADE,2496435,12086,86,Miami-Dade,True,101,0
Thu Mar 19 22:41:38 PDT 2020,1584682898,Linn,Oregon,OR,44.494824,-122.543755,Linn County,OR LINN,116672,41043,43,Linn,True,17,0
Thu Mar 19 22:41:38 PDT 2020,1584682898,Ward,North Dakota,ND,48.216686,-101.540537,Ward County,ND WARD,61675,38101,101,Ward,True,3,0
Thu Mar 19 22:41:38 PDT 2020,1584682898,Sheridan,Wyoming,WY,44.781369,-106.881211,Sheridan County,WY SHERIDAN,29116,56033,33,Sheridan,True,4,0
Thu Mar 19 22:41:38 PDT 2020,1584682898,Cabarrus,North Carolina,NC,35.387845,-80.552868,Cabarrus County,NC CABARRUS,178011,37025,25,Cabarrus,True,1,0
Thu Mar 19 22:41:38 PDT 2020,1584682898,Forsyth,North Carolina,NC,36.131667,-80.257289,Forsyth County,NC FORSYTH,350670,37067,67,Forsyth,True,2,0
Thu Mar 19 22:41:38 PDT 2020,1584682898,Johnston,North Carolina,NC,35.513405,-78.367267,Johnston County,NC JOHNSTON,168878,37101,101,Johnston,True,2,0
Thu Mar 19 22:41:38 PDT 2020,1584682898,Northampton,Pennsylvania,PA,40.752791,-75.307447,Northampton County,PA NORTHAMPTON,297735,42095,95,Northampton,True,5,1
Thu Mar 19 22:41:38 PDT 2020,1584682898,Monroe,New York,NY,43.464475,-77.664656,Monroe County,NY MONROE,744344,36055,55,Monroe,True,28,0
Thu Mar 19 22:41:38 PDT 2020,1584682898,Albany,New York,NY,42.588271,-73.974014,Albany County,NY ALBANY,304204,36001,1,Albany,True,43,0
Thu Mar 19 22:41:38 PDT 2020,1584682898,Mecklenburg,North Carolina,NC,35.246862,-80.833832,Mecklenburg County,NC MECKLENBURG,919628,37119,119,Mecklenburg,True,13,0
Thu Mar 19 22:41:38 PDT 2020,1584682898,James City,Virginia,VA,37.324427,-76.778319,James City County,VA JAMES CITY,67009,51095,95,James City,True,14,2
Thu Mar 19 22:41:38 PDT 2020,1584682898,Prince William,Virginia,VA,38.702332,-77.478887,Prince William County,VA PRINCE WILLIAM,402002,51153,153,Prince William,True,13,0
Thu Mar 19 22:41:38 PDT 2020,1584682898,Prince Edward,Virginia,VA,37.224881,-78.432957,Prince Edward County,VA PRINCE EDWARD,23368,51147,147,Prince Edward,True,1,0
Thu Mar 19 22:41:38 PDT 2020,1584682898,Hanover,Virginia,VA,37.760165,-77.490992,Hanover County,VA HANOVER,99863,51085,85,Hanover,True,1,0
Thu Mar 19 22:41:38 PDT 2020,1584682898,Alexandria city,Virginia,VA,38.818343,-77.082026,Alexandria city,VA ALEXANDRIA CITY,139966,51510,510,Alexandria city,True,3,0
Thu Mar 19 22:41:38 PDT 2020,1584682898,Androscoggin,Maine,ME,44.167681,-70.207435,Androscoggin County,ME ANDROSCOGGIN,107702,23001,1,Androscoggin,True,3,0
Thu Mar 19 22:41:38 PDT 2020,1584682898,Yakima,Washington,WA,46.456558,-120.740145,Yakima County,WA YAKIMA,243231,53077,77,Yakima,True,9,0
Thu Mar 19 22:41:38 PDT 2020,1584682898,Dakota,Minnesota,MN,44.670893,-93.062481,Dakota County,MN DAKOTA,398552,27037,37,Dakota,True,7,0
Thu Mar 19 22:41:38 PDT 2020,1584682898,Hennepin,Minnesota,MN,45.006064,-93.475185,Hennepin County,MN HENNEPIN,1152425,27053,53,Hennepin,True,33,0
Thu Mar 19 22:41:38 PDT 2020,1584682898,Stearns,Minnesota,MN,45.555235,-94.610482,Stearns County,MN STEARNS,150642,27145,145,Stearns,True,4,0
Thu Mar 19 22:41:38 PDT 2020,1584682898,Seminole,Florida,FL,28.690079,-81.13198,Seminole County,FL SEMINOLE,422718,12117,117,Seminole,True,13,0
Thu Mar 19 22:41:38 PDT 2020,1584682898,Columbia,Washington,WA,46.29285,-117.911634,Columbia County,WA COLUMBIA,4078,53013,13,Columbia,True,1,0
Thu Mar 19 22:41:38 PDT 2020,1584682898,Pike,Pennsylvania,PA,41.325949,-75.031514,Pike County,PA PIKE,57369,42103,103,Pike,True,3,0
Thu Mar 19 22:41:38 PDT 2020,1584682898,Trumbull,Ohio,OH,41.308936,-80.767656,Trumbull County,OH TRUMBULL,210312,39155,155,Trumbull,True,2,0
Thu Mar 19 22:41:38 PDT 2020,1584682898,Delaware,New York,NY,42.193986,-74.966728,Delaware County,NY DELAWARE,47980,36025,25,Delaware,True,1,0
Thu Mar 19 22:41:38 PDT 2020,1584682898,Dutchess,New York,NY,41.755008,-73.739951,Dutchess County,NY DUTCHESS,297488,36027,27,Dutchess,True,31,0
Thu Mar 19 22:41:38 PDT 2020,1584682898,Herkimer,New York,NY,43.461635,-74.894694,Herkimer County,NY HERKIMER,64519,36043,43,Herkimer,True,1,0
Thu Mar 19 22:41:38 PDT 2020,1584682898,Orange,New York,NY,41.40241,-74.306252,Orange County,NY ORANGE,372813,36071,71,Orange,True,51,0
Thu Mar 19 22:41:38 PDT 2020,1584682898,Essex,New Jersey,NJ,40.787216,-74.246136,Essex County,NJ ESSEX,783969,34013,13,Essex,True,63,2
Thu Mar 19 22:41:38 PDT 2020,1584682898,Morris,New Jersey,NJ,40.858581,-74.547427,Morris County,NJ MORRIS,492276,34027,27,Morris,True,26,0
Thu Mar 19 22:41:38 PDT 2020,1584682898,Somerset,New Jersey,NJ,40.565522,-74.61993,Somerset County,NJ SOMERSET,323444,34035,35,Somerset,True,21,0
Thu Mar 19 22:41:38 PDT 2020,1584682898,Adams,Colorado,CO,39.874325,-104.331872,Adams County,CO ADAMS,441603,8001,1,Adams,True,10,0
Thu Mar 19 22:41:38 PDT 2020,1584682898,Litchfield,Connecticut,CT,41.791897,-73.235428,Litchfield County,CT LITCHFIELD,189927,9005,5,Litchfield,True,7,0
Thu Mar 19 22:41:38 PDT 2020,1584682898,Pulaski,Arkansas,AR,34.773988,-92.316515,Pulaski County,AR PULASKI,382748,5119,119,Pulaski,True,10,0
Thu Mar 19 22:41:38 PDT 2020,1584682898,Carroll,Iowa,IA,42.039492,-94.867647,Carroll County,IA CARROLL,20816,19027,27,Carroll,True,1,0
Thu Mar 19 22:41:38 PDT 2020,1584682898,Clackamas,Oregon,OR,45.160493,-122.195127,Clackamas County,OR CLACKAMAS,375992,41005,5,Clackamas,True,6,0
Thu Mar 19 22:41:38 PDT 2020,1584682898,Greene,Missouri,MO,37.258196,-93.340641,Greene County,MO GREENE,275174,29077,77,Greene,True,6,0
Thu Mar 19 22:41:38 PDT 2020,1584682898,Montgomery,Kentucky,KY,38.038138,-83.912337,Montgomery County,KY MONTGOMERY,26499,21173,173,Montgomery,True,2,0
Thu Mar 19 22:41:38 PDT 2020,1584682898,Wyandotte,Kansas,KS,39.115384,-94.763087,Wyandotte County,KS WYANDOTTE,157505,20209,209,Wyandotte,True,8,1
Thu Mar 19 22:41:38 PDT 2020,1584682898,Tulare,California,CA,36.230453,-118.780542,Tulare County,CA TULARE,442179,6107,107,Tulare,True,7,0
Thu Mar 19 22:41:38 PDT 2020,1584682898,Grays Harbor,Washington,WA,47.142786,-123.827043,Grays Harbor County,WA GRAYS HARBOR,72797,53027,27,Grays Harbor,True,1,0
Thu Mar 19 22:41:38 PDT 2020,1584682898,Ingham,Michigan,MI,42.603534,-84.373811,Ingham County,MI INGHAM,280895,26065,65,Ingham,True,6,0
Thu Mar 19 22:41:38 PDT 2020,1584682898,Kent,Michigan,MI,43.032497,-85.547446,Kent County,MI KENT,602622,26081,81,Kent,True,7,0
Thu Mar 19 22:41:38 PDT 2020,1584682898,Montcalm,Michigan,MI,43.312782,-85.149468,Montcalm County,MI MONTCALM,63342,26117,117,Montcalm,True,1,0
Thu Mar 19 22:41:38 PDT 2020,1584682898,St. Clair,Michigan,MI,42.928803,-82.668913,St. Clair County,MI ST. CLAIR,163040,26147,147,St. Clair,True,4,0
Thu Mar 19 22:41:38 PDT 2020,1584682898,Washtenaw,Michigan,MI,42.252327,-83.844634,Washtenaw County,MI WASHTENAW,344791,26161,161,Washtenaw,True,14,0
Thu Mar 19 22:41:38 PDT 2020,1584682898,Knox,Tennessee,TN,35.992726,-83.937721,Knox County,TN KNOX,432226,47093,93,Knox,True,2,0
Thu Mar 19 22:41:38 PDT 2020,1584682898,Anchorage,Alaska,AK,61.177549,-149.274354,Anchorage Municipality,AK ANCHORAGE MUNICIPALITY,291826,2020,20,Anchorage Municipality,True,4,0
Thu Mar 19 22:41:38 PDT 2020,1584682898,Palm Beach,Florida,FL,26.645763,-80.448673,Palm Beach County,FL PALM BEACH,1320134,12099,99,Palm Beach,True,29,0
Thu Mar 19 22:41:38 PDT 2020,1584682898,Sarasota,Florida,FL,27.184386,-82.365835,Sarasota County,FL SARASOTA,379448,12115,115,Sarasota,True,6,0
Thu Mar 19 22:41:38 PDT 2020,1584682898,Duval,Florida,FL,30.335245,-81.648113,Duval County,FL DUVAL,864263,12031,31,Duval,True,15,1
Thu Mar 19 22:41:38 PDT 2020,1584682898,Clay,Florida,FL,29.987115,-81.858147,Clay County,FL CLAY,190865,12019,19,Clay,True,4,1
Thu Mar 19 22:41:38 PDT 2020,1584682898,Cass,Nebraska,NE,40.909878,-96.140609,Cass County,NE CASS,25241,31025,25,Cass,True,1,0
Thu Mar 19 22:41:38 PDT 2020,1584682898,Travis,Texas,TX,30.239513,-97.69127,Travis County,TX TRAVIS,1024266,48453,453,Travis,True,7,0
Thu Mar 19 22:41:38 PDT 2020,1584682898,Bell,Texas,TX,31.04211,-97.481921,Bell County,TX BELL,310235,48027,27,Bell,True,1,0
Thu Mar 19 22:41:38 PDT 2020,1584682898,St. Charles,Louisiana,LA,29.913833,-90.359314,St. Charles Parish,LA ST. CHARLES,52780,22089,89,St. Charles,True,4,0
Thu Mar 19 22:41:38 PDT 2020,1584682898,St. Tammany,Louisiana,LA,30.410022,-89.951962,St. Tammany Parish,LA ST. TAMMANY,233740,22103,103,St. Tammany,True,10,0
Thu Mar 19 22:41:38 PDT 2020,1584682898,Terrebonne,Louisiana,LA,29.333266,-90.844191,Terrebonne Parish,LA TERREBONNE,111860,22109,109,Terrebonne,True,4,0
Thu Mar 19 22:41:38 PDT 2020,1584682898,Cumberland,Maine,ME,43.808348,-70.330375,Cumberland County,ME CUMBERLAND,281674,23005,5,Cumberland,True,25,0
Thu Mar 19 22:41:38 PDT 2020,1584682898,Butler,Kansas,KS,37.773681,-96.838762,Butler County,KS BUTLER,65880,20015,15,Butler,True,1,0
Thu Mar 19 22:41:38 PDT 2020,1584682898,Montgomery,Alabama,AL,32.20365,-86.203831,Montgomery County,AL MONTGOMERY,229363,1101,101,Montgomery,True,3,0
Thu Mar 19 22:41:38 PDT 2020,1584682898,Harrisonburg city,Virginia,VA,38.436013,-78.874197,Harrisonburg city,VA HARRISONBURG CITY,48914,51660,660,Harrisonburg city,True,1,0
Thu Mar 19 22:41:38 PDT 2020,1584682898,Charles,Maryland,MD,38.472853,-77.015427,Charles County,MD CHARLES,146551,24017,17,Charles,True,2,0
Thu Mar 19 22:41:38 PDT 2020,1584682898,Anne Arundel,Maryland,MD,38.993374,-76.560511,Anne Arundel County,MD ANNE ARUNDEL,537656,24003,3,Anne Arundel,True,5,0
Thu Mar 19 22:41:38 PDT 2020,1584682898,Gordon,Georgia,GA,34.509667,-84.873862,Gordon County,GA GORDON,55186,13129,129,Gordon,True,4,0
Thu Mar 19 22:41:38 PDT 2020,1584682898,Henry,Georgia,GA,33.452881,-84.15444,Henry County,GA HENRY,203922,13151,151,Henry,True,3,0
Thu Mar 19 22:41:38 PDT 2020,1584682898,McCook,South Dakota,SD,43.678924,-97.362036,McCook County,SD MCCOOK,5618,46087,87,McCook,True,1,0
Thu Mar 19 22:41:38 PDT 2020,1584682898,Galveston,Texas,TX,29.228706,-94.894865,Galveston County,TX GALVESTON,291309,48167,167,Galveston,True,2,0
Thu Mar 19 22:41:38 PDT 2020,1584682898,Pueblo,Colorado,CO,38.170658,-104.489892,Pueblo County,CO PUEBLO,159063,8101,101,Pueblo,True,2,0
Thu Mar 19 22:41:38 PDT 2020,1584682898,Summit,Colorado,CO,39.621023,-106.137555,Summit County,CO SUMMIT,27994,8117,117,Summit,True,5,0
Thu Mar 19 22:41:38 PDT 2020,1584682898,Unknown,Colorado,CO,,,,,,,,Unknown,True,12,0
Thu Mar 19 22:41:38 PDT 2020,1584682898,Weld,Colorado,CO,40.555794,-104.383649,Weld County,CO WELD,252825,8123,123,Weld,True,9,1
Thu Mar 19 22:41:38 PDT 2020,1584682898,Routt,Colorado,CO,40.48316,-106.985288,Routt County,CO ROUTT,23509,8107,107,Routt,True,2,0
Thu Mar 19 22:41:38 PDT 2020,1584682898,Schenectady,New York,NY,42.817542,-74.043583,Schenectady County,NY SCHENECTADY,154727,36093,93,Schenectady,True,14,0
Thu Mar 19 22:41:38 PDT 2020,1584682898,Wright,Minnesota,MN,45.175091,-93.966396,Wright County,MN WRIGHT,124700,27171,171,Wright,True,2,0
Thu Mar 19 22:41:38 PDT 2020,1584682898,Unknown,Arkansas,AR,,,,,,,,Unknown,True,32,0
Thu Mar 19 22:41:38 PDT 2020,1584682898,Ocean,New Jersey,NJ,39.86585,-74.263027,Ocean County,NJ OCEAN,576567,34029,29,Ocean,True,33,0
Thu Mar 19 22:41:38 PDT 2020,1584682898,Jefferson,Tennessee,TN,36.048479,-83.440966,Jefferson County,TN JEFFERSON,51407,47089,89,Jefferson,True,1,0
Thu Mar 19 22:41:38 PDT 2020,1584682898,Rutherford,Tennessee,TN,35.843369,-86.417213,Rutherford County,TN RUTHERFORD,262604,47149,149,Rutherford,True,1,0
Thu Mar 19 22:41:38 PDT 2020,1584682898,Hamilton,Tennessee,TN,35.159186,-85.202296,Hamilton County,TN HAMILTON,336463,47065,65,Hamilton,True,1,0
Thu Mar 19 22:41:38 PDT 2020,1584682898,Leelanau,Michigan,MI,45.146182,-86.051574,Leelanau County,MI LEELANAU,21708,26089,89,Leelanau,True,1,0
Thu Mar 19 22:41:38 PDT 2020,1584682898,Chester,Pennsylvania,PA,39.973965,-75.749732,Chester County,PA CHESTER,498886,42029,29,Chester,True,10,0
Thu Mar 19 22:41:38 PDT 2020,1584682898,Carson City,Nevada,NV,39.153447,-119.743442,Carson City,NV CARSON CITY,55274,32510,510,Carson City,True,2,0
Thu Mar 19 22:41:38 PDT 2020,1584682898,Cumberland,Pennsylvania,PA,40.164782,-77.26344,Cumberland County,PA CUMBERLAND,235406,42041,41,Cumberland,True,11,0
Thu Mar 19 22:41:38 PDT 2020,1584682898,Washington,Pennsylvania,PA,40.200005,-80.252132,Washington County,PA WASHINGTON,207820,42125,125,Washington,True,3,0
Thu Mar 19 22:41:38 PDT 2020,1584682898,Wayne,North Carolina,NC,35.362741,-78.004826,Wayne County,NC WAYNE,122623,37191,191,Wayne,True,1,0
Thu Mar 19 22:41:38 PDT 2020,1584682898,Leflore,Mississippi,MS,33.54979,-90.294934,Leflore County,MS LEFLORE,32317,28083,83,Leflore,True,4,0
Thu Mar 19 22:41:38 PDT 2020,1584682898,Ada,Idaho,ID,43.447861,-116.244456,Ada County,ID ADA,392365,16001,1,Ada,True,3,0
Thu Mar 19 22:41:38 PDT 2020,1584682898,Henry,Missouri,MO,38.386491,-93.792628,Henry County,MO HENRY,22272,29083,83,Henry,True,1,0
Thu Mar 19 22:41:38 PDT 2020,1584682898,Harrison,Iowa,IA,41.688584,-95.827149,Harrison County,IA HARRISON,14928,19085,85,Harrison,True,1,0
Thu Mar 19 22:41:38 PDT 2020,1584682898,Jefferson,Alabama,AL,33.553444,-86.896536,Jefferson County,AL JEFFERSON,658466,1073,73,Jefferson,True,34,0
Thu Mar 19 22:41:38 PDT 2020,1584682898,Elmore,Alabama,AL,32.597229,-86.142738,Elmore County,AL ELMORE,79303,1051,51,Elmore,True,5,0
Thu Mar 19 22:41:38 PDT 2020,1584682898,Limestone,Alabama,AL,34.810239,-86.981399,Limestone County,AL LIMESTONE,82782,1083,83,Limestone,True,1,0
Thu Mar 19 22:41:38 PDT 2020,1584682898,Tuscaloosa,Alabama,AL,33.290202,-87.52286,Tuscaloosa County,AL TUSCALOOSA,194656,1125,125,Tuscaloosa,True,4,0
Thu Mar 19 22:41:38 PDT 2020,1584682898,Bay,Michigan,MI,43.699711,-83.978701,Bay County,MI BAY,107771,26017,17,Bay,True,1,0
Thu Mar 19 22:41:38 PDT 2020,1584682898,Charlevoix,Michigan,MI,45.311548,-85.271264,Charlevoix County,MI CHARLEVOIX,25949,26029,29,Charlevoix,True,1,0
Thu Mar 19 22:41:38 PDT 2020,1584682898,Macomb,Michigan,MI,42.671467,-82.910869,Macomb County,MI MACOMB,840978,26099,99,Macomb,True,55,0
Thu Mar 19 22:41:38 PDT 2020,1584682898,Unknown,Puerto Rico,PR,,,,,,,,Unknown,True,6,0
Thu Mar 19 22:41:38 PDT 2020,1584682898,Gallatin,Montana,MT,45.535559,-111.173443,Gallatin County,MT GALLATIN,89513,30031,31,Gallatin,True,2,0
Thu Mar 19 22:41:38 PDT 2020,1584682898,Yellowstone,Montana,MT,45.936987,-108.276656,Yellowstone County,MT YELLOWSTONE,147972,30111,111,Yellowstone,True,1,0
Thu Mar 19 22:41:38 PDT 2020,1584682898,Silver Bow,Montana,MT,45.895959,-112.660222,Silver Bow County,MT SILVER BOW,34200,30093,93,Silver Bow,True,1,0
Thu Mar 19 22:41:38 PDT 2020,1584682898,Lewis and Clark,Montana,MT,47.122133,-112.382954,Lewis and Clark County,MT LEWIS AND CLARK,63395,30049,49,Lewis and Clark,True,1,0
Thu Mar 19 22:41:38 PDT 2020,1584682898,Oklahoma,Oklahoma,OK,35.554611,-97.409401,Oklahoma County,OK OKLAHOMA,718633,40109,109,Oklahoma,True,18,0
Thu Mar 19 22:41:38 PDT 2020,1584682898,Fremont,Wyoming,WY,43.055303,-108.605531,Fremont County,WY FREMONT,40123,56013,13,Fremont,True,8,0
Thu Mar 19 22:41:38 PDT 2020,1584682898,Orange,Florida,FL,28.514435,-81.323295,Orange County,FL ORANGE,1145956,12095,95,Orange,True,19,1
Thu Mar 19 22:41:38 PDT 2020,1584682898,Osceola,Florida,FL,28.059027,-81.139312,Osceola County,FL OSCEOLA,268685,12097,97,Osceola,True,13,0
Thu Mar 19 22:41:38 PDT 2020,1584682898,LaPorte,Indiana,IN,41.549011,-86.744729,LaPorte County,IN LAPORTE,111467,18091,91,LaPorte,True,1,0
Thu Mar 19 22:41:38 PDT 2020,1584682898,Wells,Indiana,IN,40.735273,-85.212974,Wells County,IN WELLS,27636,18179,179,Wells,True,1,0
Thu Mar 19 22:41:38 PDT 2020,1584682898,Broome,New York,NY,42.161977,-75.830291,Broome County,NY BROOME,200600,36007,7,Broome,True,1,0
Thu Mar 19 22:41:38 PDT 2020,1584682898,Tioga,New York,NY,42.178057,-76.29745,Tioga County,NY TIOGA,51125,36107,107,Tioga,True,1,0
Thu Mar 19 22:41:38 PDT 2020,1584682898,Tompkins,New York,NY,42.453281,-76.473712,Tompkins County,NY TOMPKINS,101564,36109,109,Tompkins,True,2,0
Thu Mar 19 22:41:38 PDT 2020,1584682898,Milwaukee,Wisconsin,WI,43.037709,-87.918382,Milwaukee County,WI MILWAUKEE,947735,55079,79,Milwaukee,True,62,0
Thu Mar 19 22:41:38 PDT 2020,1584682898,Racine,Wisconsin,WI,42.729888,-87.787778,Racine County,WI RACINE,195408,55101,101,Racine,True,3,0
Thu Mar 19 22:41:38 PDT 2020,1584682898,Sheboygan,Wisconsin,WI,43.746002,-87.730546,Sheboygan County,WI SHEBOYGAN,115507,55117,117,Sheboygan,True,6,0
Thu Mar 19 22:41:38 PDT 2020,1584682898,Bossier,Louisiana,LA,32.696202,-93.617977,Bossier Parish,LA BOSSIER,116979,22015,15,Bossier,True,4,0
Thu Mar 19 22:41:38 PDT 2020,1584682898,St. John the Baptist,Louisiana,LA,30.117471,-90.504677,St. John the Baptist Parish,LA ST. JOHN THE BAPTIST,45924,22095,95,St. John the Baptist,True,3,0
Thu Mar 19 22:41:38 PDT 2020,1584682898,Carroll,Maryland,MD,39.563189,-77.015512,Carroll County,MD CARROLL,167134,24013,13,Carroll,True,2,0
Thu Mar 19 22:41:38 PDT 2020,1584682898,Summit,Utah,UT,40.87206,-110.968486,Summit County,UT SUMMIT,36324,49043,43,Summit,True,26,0
Thu Mar 19 22:41:38 PDT 2020,1584682898,Coweta,Georgia,GA,33.352897,-84.762138,Coweta County,GA COWETA,127317,13077,77,Coweta,True,3,0
Thu Mar 19 22:41:38 PDT 2020,1584682898,Nelson,Kentucky,KY,37.803188,-85.465955,Nelson County,KY NELSON,43437,21179,179,Nelson,True,1,0
Thu Mar 19 22:41:38 PDT 2020,1584682898,Windsor,Vermont,VT,43.588143,-72.591514,Windsor County,VT WINDSOR,56670,50027,27,Windsor,True,3,1
Thu Mar 19 22:41:38 PDT 2020,1584682898,Washington,Vermont,VT,44.274953,-72.609475,Washington County,VT WASHINGTON,59534,50023,23,Washington,True,1,0
Thu Mar 19 22:41:38 PDT 2020,1584682898,Pearl River,Mississippi,MS,30.773791,-89.586831,Pearl River County,MS PEARL RIVER,55834,28109,109,Pearl River,True,7,0
Thu Mar 19 22:41:38 PDT 2020,1584682898,Copiah,Mississippi,MS,31.866915,-90.448758,Copiah County,MS COPIAH,29449,28029,29,Copiah,True,2,0
Thu Mar 19 22:41:38 PDT 2020,1584682898,Lafourche,Louisiana,LA,29.491992,-90.394849,Lafourche Parish,LA LAFOURCHE,96318,22057,57,Lafourche,True,4,0
Thu Mar 19 22:41:38 PDT 2020,1584682898,Mercer,New Jersey,NJ,40.282503,-74.703724,Mercer County,NJ MERCER,366513,34021,21,Mercer,True,20,0
Thu Mar 19 22:41:38 PDT 2020,1584682898,Brunswick,North Carolina,NC,34.038708,-78.227688,Brunswick County,NC BRUNSWICK,107431,37019,19,Brunswick,True,1,0
Thu Mar 19 22:41:38 PDT 2020,1584682898,Harnett,North Carolina,NC,35.368635,-78.87161,Harnett County,NC HARNETT,114678,37085,85,Harnett,True,6,0
Thu Mar 19 22:41:38 PDT 2020,1584682898,Craven,North Carolina,NC,35.118179,-77.082541,Craven County,NC CRAVEN,103505,37049,49,Craven,True,1,0
Thu Mar 19 22:41:38 PDT 2020,1584682898,Onslow,North Carolina,NC,34.76346,-77.503297,Onslow County,NC ONSLOW,177772,37133,133,Onslow,True,1,0
Thu Mar 19 22:41:38 PDT 2020,1584682898,Belmont,Ohio,OH,40.017682,-80.967727,Belmont County,OH BELMONT,70400,39013,13,Belmont,True,2,0
Thu Mar 19 22:41:38 PDT 2020,1584682898,Butler,Ohio,OH,39.439915,-84.565397,Butler County,OH BUTLER,368130,39017,17,Butler,True,8,0
Thu Mar 19 22:41:38 PDT 2020,1584682898,Franklin,Ohio,OH,39.969447,-83.008258,Franklin County,OH FRANKLIN,1163414,39049,49,Franklin,True,10,0
Thu Mar 19 22:41:38 PDT 2020,1584682898,Lorain,Ohio,OH,41.438805,-82.179722,Lorain County,OH LORAIN,301356,39093,93,Lorain,True,6,0
Thu Mar 19 22:41:38 PDT 2020,1584682898,Tuscarawas,Ohio,OH,40.447441,-81.471157,Tuscarawas County,OH TUSCARAWAS,92582,39157,157,Tuscarawas,True,1,0
Thu Mar 19 22:41:38 PDT 2020,1584682898,Summit,Ohio,OH,41.121851,-81.534936,Summit County,OH SUMMIT,541781,39153,153,Summit,True,6,0
Thu Mar 19 22:41:38 PDT 2020,1584682898,Franklin,Kansas,KS,38.558019,-95.278962,Franklin County,KS FRANKLIN,25992,20059,59,Franklin,True,1,0
Thu Mar 19 22:41:38 PDT 2020,1584682898,Allegheny,Pennsylvania,PA,40.46892,-79.98092,Allegheny County,PA ALLEGHENY,1223348,42003,3,Allegheny,True,18,0
Thu Mar 19 22:41:38 PDT 2020,1584682898,Brazoria,Texas,TX,29.167817,-95.434647,Brazoria County,TX BRAZORIA,313166,48039,39,Brazoria,True,2,0
Thu Mar 19 22:41:38 PDT 2020,1584682898,Renville,Minnesota,MN,44.723697,-94.955617,Renville County,MN RENVILLE,15730,27129,129,Renville,True,1,0
Thu Mar 19 22:41:38 PDT 2020,1584682898,Campbell,Tennessee,TN,36.401592,-84.159249,Campbell County,TN CAMPBELL,40716,47013,13,Campbell,True,1,0
Thu Mar 19 22:41:38 PDT 2020,1584682898,Mesa,Colorado,CO,39.019492,-108.461837,Mesa County,CO MESA,146723,8077,77,Mesa,True,1,0
Thu Mar 19 22:41:38 PDT 2020,1584682898,Grant,Washington,WA,47.213633,-119.467788,Grant County,WA GRANT,89120,53025,25,Grant,True,8,0
Thu Mar 19 22:41:38 PDT 2020,1584682898,Blaine,Idaho,ID,43.394482,-113.95529,Blaine County,ID BLAINE,21376,16013,13,Blaine,True,17,0
Thu Mar 19 22:41:38 PDT 2020,1584682898,DuPage,Illinois,IL,41.852058,-88.086038,DuPage County,IL DUPAGE,916924,17043,43,DuPage,True,54,0
Thu Mar 19 22:41:38 PDT 2020,1584682898,Cumberland,Illinois,IL,39.273121,-88.240619,Cumberland County,IL CUMBERLAND,11048,17035,35,Cumberland,True,1,0
Thu Mar 19 22:41:38 PDT 2020,1584682898,Woodford,Illinois,IL,40.789596,-89.210301,Woodford County,IL WOODFORD,38664,17203,203,Woodford,True,2,0
Thu Mar 19 22:41:38 PDT 2020,1584682898,St. Clair,Illinois,IL,38.470198,-89.928546,St. Clair County,IL ST. CLAIR,270056,17163,163,St. Clair,True,3,0
Thu Mar 19 22:41:38 PDT 2020,1584682898,Beaufort,South Carolina,SC,32.358147,-80.68932,Beaufort County,SC BEAUFORT,162233,45013,13,Beaufort,True,7,0
Thu Mar 19 22:41:38 PDT 2020,1584682898,Lexington,South Carolina,SC,33.892554,-81.272853,Lexington County,SC LEXINGTON,262391,45063,63,Lexington,True,5,1
Thu Mar 19 22:41:38 PDT 2020,1584682898,Jackson,Oklahoma,OK,34.593949,-99.41221,Jackson County,OK JACKSON,26446,40065,65,Jackson,True,1,0
Thu Mar 19 22:41:38 PDT 2020,1584682898,Graham,Arizona,AZ,32.931828,-109.87831,Graham County,AZ GRAHAM,37220,4009,9,Graham,True,1,0
Thu Mar 19 22:41:38 PDT 2020,1584682898,Hartford,Connecticut,CT,41.806053,-72.732916,Hartford County,CT HARTFORD,894014,9003,3,Hartford,True,18,0
Thu Mar 19 22:41:38 PDT 2020,1584682898,New Haven,Connecticut,CT,41.349717,-72.900204,New Haven County,CT NEW HAVEN,862477,9009,9,New Haven,True,23,0
Thu Mar 19 22:41:38 PDT 2020,1584682898,Sandoval,New Mexico,NM,35.685073,-106.882618,Sandoval County,NM SANDOVAL,131561,35043,43,Sandoval,True,4,0
Thu Mar 19 22:41:38 PDT 2020,1584682898,Spotsylvania,Virginia,VA,38.182311,-77.65628,Spotsylvania County,VA SPOTSYLVANIA,122397,51177,177,Spotsylvania,True,1,0
Thu Mar 19 22:41:38 PDT 2020,1584682898,Chesterfield,Virginia,VA,37.378434,-77.585847,Chesterfield County,VA CHESTERFIELD,316236,51041,41,Chesterfield,True,6,0
Thu Mar 19 22:41:38 PDT 2020,1584682898,Winnebago,Wisconsin,WI,44.085707,-88.668149,Winnebago County,WI WINNEBAGO,166994,55139,139,Winnebago,True,5,0
Thu Mar 19 22:41:38 PDT 2020,1584682898,Bourbon,Kentucky,KY,38.202562,-84.20986,Bourbon County,KY BOURBON,19985,21017,17,Bourbon,True,2,1
Thu Mar 19 22:41:38 PDT 2020,1584682898,Boulder,Colorado,CO,40.094826,-105.398382,Boulder County,CO BOULDER,294567,8013,13,Boulder,True,11,0
Thu Mar 19 22:41:38 PDT 2020,1584682898,Sangamon,Illinois,IL,39.756378,-89.662311,Sangamon County,IL SANGAMON,197465,17167,167,Sangamon,True,4,1
Thu Mar 19 22:41:38 PDT 2020,1584682898,Dallas,Iowa,IA,41.685321,-94.040707,Dallas County,IA DALLAS,66135,19049,49,Dallas,True,5,0
Thu Mar 19 22:41:38 PDT 2020,1584682898,Missoula,Montana,MT,47.027263,-113.892681,Missoula County,MT MISSOULA,109299,30063,63,Missoula,True,3,0
Thu Mar 19 22:41:38 PDT 2020,1584682898,Monroe,Michigan,MI,41.916097,-83.487106,Monroe County,MI MONROE,152021,26115,115,Monroe,True,2,0
Thu Mar 19 22:41:38 PDT 2020,1584682898,Baker,Florida,FL,30.324442,-82.302284,Baker County,FL BAKER,27115,12003,3,Baker,True,1,0
Thu Mar 19 22:41:38 PDT 2020,1584682898,Citrus,Florida,FL,28.843628,-82.524796,Citrus County,FL CITRUS,141236,12017,17,Citrus,True,3,0
Thu Mar 19 22:41:38 PDT 2020,1584682898,El Paso,Texas,TX,31.766403,-106.24139,El Paso County,TX EL PASO,800647,48141,141,El Paso,True,6,0
Thu Mar 19 22:41:38 PDT 2020,1584682898,Hays,Texas,TX,30.061225,-98.029267,Hays County,TX HAYS,157107,48209,209,Hays,True,3,0
Thu Mar 19 22:41:38 PDT 2020,1584682898,Smith,Texas,TX,32.377093,-95.26963,Smith County,TX SMITH,209714,48423,423,Smith,True,5,0
Thu Mar 19 22:41:38 PDT 2020,1584682898,Kauai,Hawaii,HI,22.012038,-159.705965,Kauai County,HI KAUAI,67091,15007,7,Kauai,True,2,0
Thu Mar 19 22:41:38 PDT 2020,1584682898,Baldwin,Alabama,AL,30.659218,-87.746067,Baldwin County,AL BALDWIN,182265,1003,3,Baldwin,True,1,0
Thu Mar 19 22:41:38 PDT 2020,1584682898,Baltimore city,Maryland,MD,39.300213,-76.610516,Baltimore city,MD BALTIMORE CITY,620961,24510,510,Baltimore city,True,4,0
Thu Mar 19 22:41:38 PDT 2020,1584682898,Saline,Arkansas,AR,34.648525,-92.674463,Saline County,AR SALINE,107118,5125,125,Saline,True,1,0
Thu Mar 19 22:41:38 PDT 2020,1584682898,Hamilton,Indiana,IN,40.04987,-86.020586,Hamilton County,IN HAMILTON,274569,18057,57,Hamilton,True,2,0
Thu Mar 19 22:41:38 PDT 2020,1584682898,Unknown,Guam,GU,,,,,,,,Unknown,True,8,0
Thu Mar 19 22:41:38 PDT 2020,1584682898,Teton,Idaho,ID,43.760994,-111.211765,Teton County,ID TETON,10170,16081,81,Teton,True,1,0
Thu Mar 19 22:41:38 PDT 2020,1584682898,St. Bernard,Louisiana,LA,29.91811,-89.263494,St. Bernard Parish,LA ST. BERNARD,35897,22087,87,St. Bernard,True,4,0
Thu Mar 19 22:41:38 PDT 2020,1584682898,Barnstable,Massachusetts,MA,41.798819,-70.211083,Barnstable County,MA BARNSTABLE,215888,25001,1,Barnstable,True,5,0
Thu Mar 19 22:41:38 PDT 2020,1584682898,Bristol,Massachusetts,MA,41.748576,-71.087062,Bristol County,MA BRISTOL,548285,25005,5,Bristol,True,6,0
Thu Mar 19 22:41:38 PDT 2020,1584682898,Lucas,Ohio,OH,41.682321,-83.468867,Lucas County,OH LUCAS,441815,39095,95,Lucas,True,1,0
Thu Mar 19 22:41:38 PDT 2020,1584682898,Dougherty,Georgia,GA,31.535068,-84.214444,Dougherty County,GA DOUGHERTY,94565,13095,95,Dougherty,True,22,4
Thu Mar 19 22:41:38 PDT 2020,1584682898,Clayton,Georgia,GA,33.552242,-84.412977,Clayton County,GA CLAYTON,259424,13063,63,Clayton,True,6,0
Thu Mar 19 22:41:38 PDT 2020,1584682898,Clarke,Georgia,GA,33.952234,-83.36713,Clarke County,GA CLARKE,116714,13059,59,Clarke,True,8,0
Thu Mar 19 22:41:38 PDT 2020,1584682898,Newton,Georgia,GA,33.544045,-83.855189,Newton County,GA NEWTON,99958,13217,217,Newton,True,3,0
Thu Mar 19 22:41:38 PDT 2020,1584682898,Unknown,Virgin Islands,VI,,,,,,,,Unknown,True,3,0
Thu Mar 19 22:41:38 PDT 2020,1584682898,Lehigh,Pennsylvania,PA,40.614241,-75.590627,Lehigh County,PA LEHIGH,349497,42077,77,Lehigh,True,1,0
Thu Mar 19 22:41:38 PDT 2020,1584682898,Luzerne,Pennsylvania,PA,41.172787,-75.976035,Luzerne County,PA LUZERNE,320918,42079,79,Luzerne,True,1,0
Thu Mar 19 22:41:38 PDT 2020,1584682898,Cleveland,Oklahoma,OK,35.203117,-97.328332,Cleveland County,OK CLEVELAND,255755,40027,27,Cleveland,True,8,0
Thu Mar 19 22:41:38 PDT 2020,1584682898,Payne,Oklahoma,OK,36.079225,-96.975255,Payne County,OK PAYNE,77350,40119,119,Payne,True,1,0
Thu Mar 19 22:41:38 PDT 2020,1584682898,Erie,New York,NY,42.752759,-78.778192,Erie County,NY ERIE,919040,36029,29,Erie,True,28,0
Thu Mar 19 22:41:38 PDT 2020,1584682898,Medina,Ohio,OH,41.116051,-81.899566,Medina County,OH MEDINA,172332,39103,103,Medina,True,5,0
Thu Mar 19 22:41:38 PDT 2020,1584682898,Watauga,North Carolina,NC,36.235371,-81.709919,Watauga County,NC WATAUGA,51079,37189,189,Watauga,True,2,0
Thu Mar 19 22:41:38 PDT 2020,1584682898,Garland,Arkansas,AR,34.578861,-93.146915,Garland County,AR GARLAND,96024,5051,51,Garland,True,2,0
Thu Mar 19 22:41:38 PDT 2020,1584682898,Washington,Minnesota,MN,45.037929,-92.890117,Washington County,MN WASHINGTON,238136,27163,163,Washington,True,3,0
Thu Mar 19 22:41:38 PDT 2020,1584682898,Waseca,Minnesota,MN,44.01846,-93.589844,Waseca County,MN WASECA,19136,27161,161,Waseca,True,1,0
Thu Mar 19 22:41:38 PDT 2020,1584682898,Wilson,North Carolina,NC,35.704125,-77.918982,Wilson County,NC WILSON,81234,37195,195,Wilson,True,2,0
Thu Mar 19 22:41:38 PDT 2020,1584682898,Utah,Utah,UT,40.120409,-111.668667,Utah County,UT UTAH,516564,49049,49,Utah,True,3,0
Thu Mar 19 22:41:38 PDT 2020,1584682898,San Luis Obispo,California,CA,35.385227,-120.44754,San Luis Obispo County,CA SAN LUIS OBISPO,269637,6079,79,San Luis Obispo,True,13,0
Thu Mar 19 22:41:38 PDT 2020,1584682898,Garfield,Colorado,CO,39.599352,-107.90978,Garfield County,CO GARFIELD,56389,8045,45,Garfield,True,3,0
Thu Mar 19 22:41:38 PDT 2020,1584682898,Champaign,Illinois,IL,40.13915,-88.197201,Champaign County,IL CHAMPAIGN,201081,17019,19,Champaign,True,1,0
Thu Mar 19 22:41:38 PDT 2020,1584682898,Clinton,Illinois,IL,38.606423,-89.423136,Clinton County,IL CLINTON,37762,17027,27,Clinton,True,3,0
Thu Mar 19 22:41:38 PDT 2020,1584682898,Whiteside,Illinois,IL,41.750571,-89.910957,Whiteside County,IL WHITESIDE,58498,17195,195,Whiteside,True,1,0
Thu Mar 19 22:41:38 PDT 2020,1584682898,Winnebago,Illinois,IL,42.337396,-89.161205,Winnebago County,IL WINNEBAGO,295266,17201,201,Winnebago,True,1,0
Thu Mar 19 22:41:38 PDT 2020,1584682898,Clear Creek,Colorado,CO,39.689403,-105.670791,Clear Creek County,CO CLEAR CREEK,9088,8019,19,Clear Creek,True,2,0
Thu Mar 19 22:41:38 PDT 2020,1584682898,Horry,South Carolina,SC,33.909269,-78.976675,Horry County,SC HORRY,269291,45051,51,Horry,True,6,0
Thu Mar 19 22:41:38 PDT 2020,1584682898,Anderson,South Carolina,SC,34.519549,-82.638086,Anderson County,SC ANDERSON,187126,45007,7,Anderson,True,3,0
Thu Mar 19 22:41:38 PDT 2020,1584682898,Greenville,South Carolina,SC,34.892645,-82.372077,Greenville County,SC GREENVILLE,451225,45045,45,Greenville,True,7,0
Thu Mar 19 22:41:38 PDT 2020,1584682898,Clark,Kentucky,KY,37.970133,-84.144974,Clark County,KY CLARK,35613,21049,49,Clark,True,2,0
Thu Mar 19 22:41:38 PDT 2020,1584682898,Lincoln,Maine,ME,43.994264,-69.514029,Lincoln County,ME LINCOLN,34457,23015,15,Lincoln,True,3,0
Thu Mar 19 22:41:38 PDT 2020,1584682898,Hillsborough,New Hampshire,NH,42.911643,-71.723101,Hillsborough County,NH HILLSBOROUGH,400721,33011,11,Hillsborough,True,8,0
Thu Mar 19 22:41:38 PDT 2020,1584682898,Ottawa,Michigan,MI,42.952394,-86.101626,Ottawa County,MI OTTAWA,263801,26139,139,Ottawa,True,1,0
Thu Mar 19 22:41:38 PDT 2020,1584682898,Denton,Texas,TX,33.205005,-97.119046,Denton County,TX DENTON,662614,48121,121,Denton,True,9,0
Thu Mar 19 22:41:38 PDT 2020,1584682898,Montgomery,New York,NY,42.900891,-74.435357,Montgomery County,NY MONTGOMERY,50219,36057,57,Montgomery,True,1,0
Thu Mar 19 22:41:38 PDT 2020,1584682898,Greene,New York,NY,42.286951,-74.149495,Greene County,NY GREENE,49221,36039,39,Greene,True,2,0
Thu Mar 19 22:41:38 PDT 2020,1584682898,Howard,Maryland,MD,39.252264,-76.924406,Howard County,MD HOWARD,287085,24027,27,Howard,True,16,0
Thu Mar 19 22:41:38 PDT 2020,1584682898,Putnam,New York,NY,41.427904,-73.743882,Putnam County,NY PUTNAM,99710,36079,79,Putnam,True,2,0
Thu Mar 19 22:41:38 PDT 2020,1584682898,Yamhill,Oregon,OR,45.248138,-123.316117,Yamhill County,OR YAMHILL,99193,41071,71,Yamhill,True,2,0
Thu Mar 19 22:41:38 PDT 2020,1584682898,Lewis,Washington,WA,46.580071,-122.377444,Lewis County,WA LEWIS,75455,53041,41,Lewis,True,1,0
Thu Mar 19 22:41:38 PDT 2020,1584682898,Lincoln,Washington,WA,47.582718,-118.417667,Lincoln County,WA LINCOLN,10570,53043,43,Lincoln,True,1,0
Thu Mar 19 22:41:38 PDT 2020,1584682898,Maui,Hawaii,HI,20.855931,-156.60155,Maui County,HI MAUI,154834,15009,9,Maui,True,5,0
Thu Mar 19 22:41:38 PDT 2020,1584682898,Lee,Alabama,AL,32.604064,-85.353048,Lee County,AL LEE,140247,1081,81,Lee,True,10,0
Thu Mar 19 22:41:38 PDT 2020,1584682898,Shelby,Alabama,AL,33.262937,-86.678104,Shelby County,AL SHELBY,195085,1117,117,Shelby,True,9,0
Thu Mar 19 22:41:38 PDT 2020,1584682898,Allamakee,Iowa,IA,43.274964,-91.382751,Allamakee County,IA ALLAMAKEE,14330,19005,5,Allamakee,True,2,0
Thu Mar 19 22:41:38 PDT 2020,1584682898,Polk,Iowa,IA,41.684281,-93.56972,Polk County,IA POLK,430640,19153,153,Polk,True,6,0
Thu Mar 19 22:41:38 PDT 2020,1584682898,Kay,Oklahoma,OK,36.814842,-97.143755,Kay County,OK KAY,46562,40071,71,Kay,True,2,0
Thu Mar 19 22:41:38 PDT 2020,1584682898,Hinds,Mississippi,MS,32.267923,-90.4659,Hinds County,MS HINDS,245285,28049,49,Hinds,True,6,0
Thu Mar 19 22:41:38 PDT 2020,1584682898,Hampden,Massachusetts,MA,42.136198,-72.635648,Hampden County,MA HAMPDEN,463490,25013,13,Hampden,True,3,0
Thu Mar 19 22:41:38 PDT 2020,1584682898,Plymouth,Massachusetts,MA,41.987196,-70.741942,Plymouth County,MA PLYMOUTH,494919,25023,23,Plymouth,True,5,0
Thu Mar 19 22:41:38 PDT 2020,1584682898,San Bernardino,California,CA,34.85722,-116.181197,San Bernardino County,CA SAN BERNARDINO,2035210,6071,71,San Bernardino,True,5,0
Thu Mar 19 22:41:38 PDT 2020,1584682898,Bartholomew,Indiana,IN,39.205843,-85.897999,Bartholomew County,IN BARTHOLOMEW,76794,18005,5,Bartholomew,True,1,0
Thu Mar 19 22:41:38 PDT 2020,1584682898,Floyd,Indiana,IN,38.317936,-85.911474,Floyd County,IN FLOYD,74578,18043,43,Floyd,True,1,0
Thu Mar 19 22:41:38 PDT 2020,1584682898,Talbot,Maryland,MD,38.749427,-76.17913,Talbot County,MD TALBOT,37782,24041,41,Talbot,True,1,0
Thu Mar 19 22:41:38 PDT 2020,1584682898,Frederick,Maryland,MD,39.470427,-77.397626,Frederick County,MD FREDERICK,233385,24021,21,Frederick,True,1,0
Thu Mar 19 22:41:38 PDT 2020,1584682898,Allegany,New York,NY,42.247894,-78.026176,Allegany County,NY ALLEGANY,48946,36003,3,Allegany,True,2,0
Thu Mar 19 22:41:38 PDT 2020,1584682898,Onondaga,New York,NY,43.00653,-76.196117,Onondaga County,NY ONONDAGA,467026,36067,67,Onondaga,True,2,0
Thu Mar 19 22:41:38 PDT 2020,1584682898,Ontario,New York,NY,42.856695,-77.303277,Ontario County,NY ONTARIO,107931,36069,69,Ontario,True,1,0
Thu Mar 19 22:41:38 PDT 2020,1584682898,Benton,Minnesota,MN,45.701227,-94.001439,Benton County,MN BENTON,38451,27009,9,Benton,True,1,0
Thu Mar 19 22:41:38 PDT 2020,1584682898,Blue Earth,Minnesota,MN,44.038225,-94.064071,Blue Earth County,MN BLUE EARTH,64013,27013,13,Blue Earth,True,2,0
Thu Mar 19 22:41:38 PDT 2020,1584682898,Canadian,Oklahoma,OK,35.543416,-97.979836,Canadian County,OK CANADIAN,115541,40017,17,Canadian,True,2,0
Thu Mar 19 22:41:38 PDT 2020,1584682898,Cleveland,Arkansas,AR,33.893201,-92.188714,Cleveland County,AR CLEVELAND,8689,5025,25,Cleveland,True,1,0
Thu Mar 19 22:41:38 PDT 2020,1584682898,Lincoln,Arkansas,AR,33.957665,-91.727624,Lincoln County,AR LINCOLN,14134,5079,79,Lincoln,True,1,0
Thu Mar 19 22:41:38 PDT 2020,1584682898,Desha,Arkansas,AR,33.828748,-91.244427,Desha County,AR DESHA,13008,5041,41,Desha,True,1,0
Thu Mar 19 22:41:38 PDT 2020,1584682898,Cleburne,Arkansas,AR,35.566288,-92.059974,Cleburne County,AR CLEBURNE,25970,5023,23,Cleburne,True,1,0
Thu Mar 19 22:41:38 PDT 2020,1584682898,Lake,Florida,FL,28.764113,-81.712282,Lake County,FL LAKE,297052,12069,69,Lake,True,3,0
Thu Mar 19 22:41:38 PDT 2020,1584682898,Santa Barbara,California,CA,34.537378,-120.038485,Santa Barbara County,CA SANTA BARBARA,423895,6083,83,Santa Barbara,True,8,0
Thu Mar 19 22:41:38 PDT 2020,1584682898,Geauga,Ohio,OH,41.499322,-81.173505,Geauga County,OH GEAUGA,93389,39055,55,Geauga,True,1,0
Thu Mar 19 22:41:38 PDT 2020,1584682898,Hunterdon,New Jersey,NJ,40.565283,-74.911969,Hunterdon County,NJ HUNTERDON,128349,34019,19,Hunterdon,True,8,0
Thu Mar 19 22:41:38 PDT 2020,1584682898,Nevada,California,CA,39.295191,-120.773446,Nevada County,CA NEVADA,98764,6057,57,Nevada,True,1,0
Thu Mar 19 22:41:38 PDT 2020,1584682898,Outagamie,Wisconsin,WI,44.418226,-88.464988,Outagamie County,WI OUTAGAMIE,176695,55087,87,Outagamie,True,1,0
Thu Mar 19 22:41:38 PDT 2020,1584682898,Wood,Wisconsin,WI,44.461413,-90.038825,Wood County,WI WOOD,74749,55141,141,Wood,True,1,0
Thu Mar 19 22:41:38 PDT 2020,1584682898,Durham,North Carolina,NC,36.036589,-78.877919,Durham County,NC DURHAM,267587,37063,63,Durham,True,32,0
Thu Mar 19 22:41:38 PDT 2020,1584682898,Bowie,Texas,TX,33.446051,-94.422375,Bowie County,TX BOWIE,92565,48037,37,Bowie,True,1,0
Thu Mar 19 22:41:38 PDT 2020,1584682898,Wasatch,Utah,UT,40.334884,-111.161568,Wasatch County,UT WASATCH,23530,49051,51,Wasatch,True,3,0
Thu Mar 19 22:41:38 PDT 2020,1584682898,Tooele,Utah,UT,40.467692,-113.124015,Tooele County,UT TOOELE,58218,49045,45,Tooele,True,1,0
Thu Mar 19 22:41:38 PDT 2020,1584682898,Sevier,Tennessee,TN,35.791284,-83.521954,Sevier County,TN SEVIER,89889,47155,155,Sevier,True,1,0
Thu Mar 19 22:41:38 PDT 2020,1584682898,Peoria,Illinois,IL,40.785999,-89.767358,Peoria County,IL PEORIA,186494,17143,143,Peoria,True,3,0
Thu Mar 19 22:41:38 PDT 2020,1584682898,Will,Illinois,IL,41.448474,-87.978456,Will County,IL WILL,677560,17197,197,Will,True,9,1
Thu Mar 19 22:41:38 PDT 2020,1584682898,Troup,Georgia,GA,33.034482,-85.02836,Troup County,GA TROUP,67044,13285,285,Troup,True,2,0
Thu Mar 19 22:41:38 PDT 2020,1584682898,Hall,Georgia,GA,34.317588,-83.818497,Hall County,GA HALL,179684,13139,139,Hall,True,5,0
Thu Mar 19 22:41:38 PDT 2020,1584682898,Paulding,Georgia,GA,33.920903,-84.866979,Paulding County,GA PAULDING,142324,13223,223,Paulding,True,3,0
Thu Mar 19 22:41:38 PDT 2020,1584682898,Forsyth,Georgia,GA,34.225143,-84.127336,Forsyth County,GA FORSYTH,175511,13117,117,Forsyth,True,3,0
Thu Mar 19 22:41:38 PDT 2020,1584682898,Fairfield,South Carolina,SC,34.395669,-81.127001,Fairfield County,SC FAIRFIELD,23956,45039,39,Fairfield,True,1,0
Thu Mar 19 22:41:38 PDT 2020,1584682898,Unknown,Maine,ME,,,,,,,,Unknown,True,12,0
Thu Mar 19 22:41:38 PDT 2020,1584682898,Hancock,Mississippi,MS,30.391437,-89.47985,Hancock County,MS HANCOCK,43929,28045,45,Hancock,True,2,0
Thu Mar 19 22:41:38 PDT 2020,1584682898,Monroe,Mississippi,MS,33.89003,-88.485038,Monroe County,MS MONROE,36989,28095,95,Monroe,True,1,0
Thu Mar 19 22:41:38 PDT 2020,1584682898,Unknown,Massachusetts,MA,,,,,,,,Unknown,True,13,0
Thu Mar 19 22:41:38 PDT 2020,1584682898,Ascension,Louisiana,LA,30.202946,-90.910023,Ascension Parish,LA ASCENSION,107215,22005,5,Ascension,True,2,0
Thu Mar 19 22:41:38 PDT 2020,1584682898,Escambia,Florida,FL,30.611664,-87.33904,Escambia County,FL ESCAMBIA,297619,12033,33,Escambia,True,1,0
Thu Mar 19 22:41:38 PDT 2020,1584682898,Benton,Oregon,OR,44.490623,-123.426317,Benton County,OR BENTON,85579,41003,3,Benton,True,3,0
Thu Mar 19 22:41:38 PDT 2020,1584682898,York,Virginia,VA,37.220914,-76.395533,York County,VA YORK,65464,51199,199,York,True,1,0
Thu Mar 19 22:41:38 PDT 2020,1584682898,Stafford,Virginia,VA,38.418933,-77.459043,Stafford County,VA STAFFORD,128961,51179,179,Stafford,True,2,0
Thu Mar 19 22:41:38 PDT 2020,1584682898,Unknown,Montana,MT,,,,,,,,Unknown,True,4,0
Thu Mar 19 22:41:38 PDT 2020,1584682898,Carroll,New Hampshire,NH,43.867567,-71.201665,Carroll County,NH CARROLL,47818,33003,3,Carroll,True,4,0
Thu Mar 19 22:41:38 PDT 2020,1584682898,Cass,Missouri,MO,38.647159,-94.354242,Cass County,MO CASS,99478,29037,37,Cass,True,2,0
Thu Mar 19 22:41:38 PDT 2020,1584682898,Matagorda,Texas,TX,28.783341,-95.997755,Matagorda County,TX MATAGORDA,36702,48321,321,Matagorda,True,3,1
Thu Mar 19 22:41:38 PDT 2020,1584682898,Fairbanks North Star Borough,Alaska,AK,64.690832,-146.599867,Fairbanks North Star Borough,AK FAIRBANKS NORTH STAR BOROUGH,97581,2090,90,Fairbanks North Star Borough,True,3,0
Thu Mar 19 22:41:38 PDT 2020,1584682898,Franklin,Indiana,IN,39.409762,-85.066964,Franklin County,IN FRANKLIN,23087,18047,47,Franklin,True,2,0
Thu Mar 19 22:41:38 PDT 2020,1584682898,Lake,Indiana,IN,41.472239,-87.374337,Lake County,IN LAKE,496005,18089,89,Lake,True,4,0
Thu Mar 19 22:41:38 PDT 2020,1584682898,Clinton,New York,NY,44.75271,-73.705648,Clinton County,NY CLINTON,82128,36019,19,Clinton,True,1,0
Thu Mar 19 22:41:38 PDT 2020,1584682898,Rensselaer,New York,NY,42.710421,-73.513845,Rensselaer County,NY RENSSELAER,159429,36083,83,Rensselaer,True,4,0
Thu Mar 19 22:41:38 PDT 2020,1584682898,Sullivan,New York,NY,41.720176,-74.76468,Sullivan County,NY SULLIVAN,77547,36105,105,Sullivan,True,1,0
Thu Mar 19 22:41:38 PDT 2020,1584682898,Wyoming,New York,NY,42.701363,-78.228567,Wyoming County,NY WYOMING,42155,36121,121,Wyoming,True,1,0
Thu Mar 19 22:41:38 PDT 2020,1584682898,Ford,Kansas,KS,37.688365,-99.884734,Ford County,KS FORD,33848,20057,57,Ford,True,1,0
Thu Mar 19 22:41:38 PDT 2020,1584682898,Williamsburg city,Virginia,VA,37.269293,-76.706717,Williamsburg city,VA WILLIAMSBURG CITY,14068,51830,830,Williamsburg city,True,1,0
Thu Mar 19 22:41:38 PDT 2020,1584682898,Henrico,Virginia,VA,37.43752,-77.300333,Henrico County,VA HENRICO,306935,51087,87,Henrico,True,6,0
Thu Mar 19 22:41:38 PDT 2020,1584682898,Goochland,Virginia,VA,37.724166,-77.914273,Goochland County,VA GOOCHLAND,21717,51075,75,Goochland,True,1,0
Thu Mar 19 22:41:38 PDT 2020,1584682898,Charlottesville city,Virginia,VA,38.037658,-78.485381,Charlottesville city,VA CHARLOTTESVILLE CITY,43475,51540,540,Charlottesville city,True,1,0
Thu Mar 19 22:41:38 PDT 2020,1584682898,Madison,Alabama,AL,34.764238,-86.55108,Madison County,AL MADISON,334811,1089,89,Madison,True,5,0
Thu Mar 19 22:41:38 PDT 2020,1584682898,St. Clair,Alabama,AL,33.712963,-86.315663,St. Clair County,AL ST. CLAIR,83593,1115,115,St. Clair,True,1,0
Thu Mar 19 22:41:38 PDT 2020,1584682898,Kern,California,CA,35.346629,-118.729506,Kern County,CA KERN,839631,6029,29,Kern,True,2,0
Thu Mar 19 22:41:38 PDT 2020,1584682898,Nicollet,Minnesota,MN,44.358819,-94.245685,Nicollet County,MN NICOLLET,32727,27103,103,Nicollet,True,2,0
Thu Mar 19 22:41:38 PDT 2020,1584682898,Martin,Minnesota,MN,43.677118,-94.537197,Martin County,MN MARTIN,20840,27091,91,Martin,True,3,0
Thu Mar 19 22:41:38 PDT 2020,1584682898,Warren,New Jersey,NJ,40.853524,-75.009542,Warren County,NJ WARREN,108692,34041,41,Warren,True,4,0
Thu Mar 19 22:41:38 PDT 2020,1584682898,Brevard,Florida,FL,28.298275,-80.700384,Brevard County,FL BREVARD,543376,12009,9,Brevard,True,3,0
Thu Mar 19 22:41:38 PDT 2020,1584682898,Whitfield,Georgia,GA,34.801726,-84.968541,Whitfield County,GA WHITFIELD,102599,13313,313,Whitfield,True,1,0
Thu Mar 19 22:41:38 PDT 2020,1584682898,Richmond,Georgia,GA,33.361487,-82.074998,Richmond County,GA RICHMOND,200549,13245,245,Richmond,True,2,0
Thu Mar 19 22:41:38 PDT 2020,1584682898,Pawnee,Oklahoma,OK,36.313704,-96.696669,Pawnee County,OK PAWNEE,16577,40117,117,Pawnee,True,1,0
Thu Mar 19 22:41:38 PDT 2020,1584682898,Beaver,Pennsylvania,PA,40.68414,-80.350721,Beaver County,PA BEAVER,170539,42007,7,Beaver,True,2,0
Thu Mar 19 22:41:38 PDT 2020,1584682898,Franklin,Washington,WA,46.53458,-118.906944,Franklin County,WA FRANKLIN,78163,53021,21,Franklin,True,2,1
Thu Mar 19 22:41:38 PDT 2020,1584682898,Iredell,North Carolina,NC,35.806356,-80.874545,Iredell County,NC IREDELL,159437,37097,97,Iredell,True,2,0
Thu Mar 19 22:41:38 PDT 2020,1584682898,Sampson,North Carolina,NC,34.990574,-78.371382,Sampson County,NC SAMPSON,63431,37163,163,Sampson,True,1,0
Thu Mar 19 22:41:38 PDT 2020,1584682898,Jackson,Michigan,MI,42.248474,-84.420868,Jackson County,MI JACKSON,160248,26075,75,Jackson,True,1,0
Thu Mar 19 22:41:38 PDT 2020,1584682898,Otsego,Michigan,MI,45.021794,-84.576597,Otsego County,MI OTSEGO,24164,26137,137,Otsego,True,1,0
Thu Mar 19 22:41:38 PDT 2020,1584682898,Coshocton,Ohio,OH,40.29672,-81.930112,Coshocton County,OH COSHOCTON,36901,39031,31,Coshocton,True,2,0
Thu Mar 19 22:41:38 PDT 2020,1584682898,Darke,Ohio,OH,40.132176,-84.620438,Darke County,OH DARKE,52959,39037,37,Darke,True,1,0
Thu Mar 19 22:41:38 PDT 2020,1584682898,Lake,Ohio,OH,41.924116,-81.392643,Lake County,OH LAKE,230041,39085,85,Lake,True,2,0
Thu Mar 19 22:41:38 PDT 2020,1584682898,Mahoning,Ohio,OH,41.01088,-80.770396,Mahoning County,OH MAHONING,238823,39099,99,Mahoning,True,5,0
Thu Mar 19 22:41:38 PDT 2020,1584682898,Navajo,Arizona,AZ,35.390934,-110.320908,Navajo County,AZ NAVAJO,107449,4017,17,Navajo,True,3,0
Thu Mar 19 22:41:38 PDT 2020,1584682898,Jackson,Missouri,MO,39.007233,-94.342507,Jackson County,MO JACKSON,674158,29095,95,Jackson,True,3,0
Thu Mar 19 22:41:38 PDT 2020,1584682898,Box Elder,Utah,UT,41.476021,-113.052922,Box Elder County,UT BOX ELDER,49975,49003,3,Box Elder,True,1,0
Thu Mar 19 22:41:38 PDT 2020,1584682898,Washington,Utah,UT,37.262531,-113.4878,Washington County,UT WASHINGTON,138115,49053,53,Washington,True,1,0
Thu Mar 19 22:41:38 PDT 2020,1584682898,Gloucester,New Jersey,NJ,39.721019,-75.143708,Gloucester County,NJ GLOUCESTER,288288,34015,15,Gloucester,True,3,0
Thu Mar 19 22:41:38 PDT 2020,1584682898,Cass,North Dakota,ND,46.927003,-97.252375,Cass County,ND CASS,149778,38017,17,Cass,True,1,0
Thu Mar 19 22:41:38 PDT 2020,1584682898,Kenosha,Wisconsin,WI,42.579703,-87.424898,Kenosha County,WI KENOSHA,166426,55059,59,Kenosha,True,4,0
Thu Mar 19 22:41:38 PDT 2020,1584682898,Douglas,Kansas,KS,38.896573,-95.290529,Douglas County,KS DOUGLAS,110826,20045,45,Douglas,True,1,0
Thu Mar 19 22:41:38 PDT 2020,1584682898,Knox,Nebraska,NE,42.634404,-97.891349,Knox County,NE KNOX,8701,31107,107,Knox,True,2,0
Thu Mar 19 22:41:38 PDT 2020,1584682898,Calhoun,South Carolina,SC,33.67478,-80.780347,Calhoun County,SC CALHOUN,15175,45017,17,Calhoun,True,1,0
Thu Mar 19 22:41:38 PDT 2020,1584682898,Richland,South Carolina,SC,34.029783,-80.896566,Richland County,SC RICHLAND,384504,45079,79,Richland,True,8,0
Thu Mar 19 22:41:38 PDT 2020,1584682898,York,South Carolina,SC,34.97019,-81.183188,York County,SC YORK,226073,45091,91,York,True,1,0
Thu Mar 19 22:41:38 PDT 2020,1584682898,Jefferson,West Virginia,WV,39.307398,-77.86322,Jefferson County,WV JEFFERSON,53498,54037,37,Jefferson,True,1,0
Thu Mar 19 22:41:38 PDT 2020,1584682898,Cole,Missouri,MO,38.506847,-92.271404,Cole County,MO COLE,75990,29051,51,Cole,True,2,0
Thu Mar 19 22:41:38 PDT 2020,1584682898,Boone,Missouri,MO,38.989657,-92.310779,Boone County,MO BOONE,162642,29019,19,Boone,True,1,1
Thu Mar 19 22:41:38 PDT 2020,1584682898,Sarpy,Nebraska,NE,41.115064,-96.109125,Sarpy County,NE SARPY,158840,31153,153,Sarpy,True,1,0
Thu Mar 19 22:41:38 PDT 2020,1584682898,East Baton Rouge,Louisiana,LA,30.544002,-91.093174,East Baton Rouge Parish,LA EAST BATON ROUGE,440171,22033,33,East Baton Rouge,True,6,0
Thu Mar 19 22:41:38 PDT 2020,1584682898,Washington,Louisiana,LA,30.852144,-90.046253,Washington Parish,LA WASHINGTON,47168,22117,117,Washington,True,2,0
Thu Mar 19 22:41:38 PDT 2020,1584682898,Polk,Florida,FL,27.953115,-81.692783,Polk County,FL POLK,602095,12105,105,Polk,True,4,0
Thu Mar 19 22:41:38 PDT 2020,1584682898,Adair,Iowa,IA,41.328528,-94.478164,Adair County,IA ADAIR,7682,19001,1,Adair,True,1,0
Thu Mar 19 22:41:38 PDT 2020,1584682898,Black Hawk,Iowa,IA,42.472888,-92.306059,Black Hawk County,IA BLACK HAWK,131090,19013,13,Black Hawk,True,1,0
Thu Mar 19 22:41:38 PDT 2020,1584682898,Madison,Idaho,ID,43.789709,-111.65655,Madison County,ID MADISON,37536,16065,65,Madison,True,1,0
Thu Mar 19 22:41:38 PDT 2020,1584682898,Burleigh,North Dakota,ND,46.971843,-100.462001,Burleigh County,ND BURLEIGH,81308,38015,15,Burleigh,True,11,0
Thu Mar 19 22:41:38 PDT 2020,1584682898,Lyon,Kentucky,KY,37.023976,-88.083391,Lyon County,KY LYON,8314,21143,143,Lyon,True,1,0
Thu Mar 19 22:41:38 PDT 2020,1584682898,Laramie,Wyoming,WY,41.29283,-104.660395,Laramie County,WY LARAMIE,91738,56021,21,Laramie,True,4,0
Thu Mar 19 22:41:38 PDT 2020,1584682898,Hawaii,Hawaii,HI,19.597764,-155.502443,Hawaii County,HI HAWAII,185079,15001,1,Hawaii,True,1,0
Thu Mar 19 22:41:38 PDT 2020,1584682898,Unknown,Vermont,VT,,,,,,,,Unknown,True,7,0
Thu Mar 19 22:41:38 PDT 2020,1584682898,Klickitat,Washington,WA,45.869509,-120.780117,Klickitat County,WA KLICKITAT,20318,53039,39,Klickitat,True,2,0
Thu Mar 19 22:41:38 PDT 2020,1584682898,Ketchikan Gateway Borough,Alaska,AK,55.449938,-131.106685,Ketchikan Gateway Borough,AK KETCHIKAN GATEWAY BOROUGH,13477,2130,130,Ketchikan Gateway Borough,True,1,0
Thu Mar 19 22:41:38 PDT 2020,1584682898,Taos,New Mexico,NM,36.576529,-105.637986,Taos County,NM TAOS,32937,35055,55,Taos,True,1,0
Thu Mar 19 22:41:38 PDT 2020,1584682898,Harrison,Mississippi,MS,30.416536,-89.083376,Harrison County,MS HARRISON,187105,28047,47,Harrison,True,7,0
Thu Mar 19 22:41:38 PDT 2020,1584682898,Jackson,Mississippi,MS,30.458491,-88.619991,Jackson County,MS JACKSON,139668,28059,59,Jackson,True,2,0
Thu Mar 19 22:41:38 PDT 2020,1584682898,Oxford,Maine,ME,44.494585,-70.734687,Oxford County,ME OXFORD,57833,23017,17,Oxford,True,1,0
Thu Mar 19 22:41:38 PDT 2020,1584682898,York,Maine,ME,43.427239,-70.670402,York County,ME YORK,197131,23031,31,York,True,3,0
Thu Mar 19 22:41:38 PDT 2020,1584682898,Kennebec,Maine,ME,44.417012,-69.765764,Kennebec County,ME KENNEBEC,122151,23011,11,Kennebec,True,3,0
Thu Mar 19 22:41:38 PDT 2020,1584682898,Sussex,Delaware,DE,38.677511,-75.335495,Sussex County,DE SUSSEX,197145,10005,5,Sussex,True,3,0
Thu Mar 19 22:41:38 PDT 2020,1584682898,Lincoln,Nebraska,NE,41.050322,-100.744481,Lincoln County,NE LINCOLN,36288,31111,111,Lincoln,True,1,0
Thu Mar 19 22:41:38 PDT 2020,1584682898,Kent,Delaware,DE,39.097088,-75.502982,Kent County,DE KENT,162310,10001,1,Kent,True,4,0
Thu Mar 19 22:41:38 PDT 2020,1584682898,Clark,Indiana,IN,38.476217,-85.711122,Clark County,IN CLARK,110232,18019,19,Clark,True,1,0
Thu Mar 19 22:41:38 PDT 2020,1584682898,Fayette,Indiana,IN,39.639655,-85.185032,Fayette County,IN FAYETTE,24277,18041,41,Fayette,True,1,0
Thu Mar 19 22:41:38 PDT 2020,1584682898,Jennings,Indiana,IN,38.996234,-85.628111,Jennings County,IN JENNINGS,28525,18079,79,Jennings,True,1,0
Thu Mar 19 22:41:38 PDT 2020,1584682898,Madison,Indiana,IN,40.166203,-85.722454,Madison County,IN MADISON,131636,18095,95,Madison,True,1,0
Thu Mar 19 22:41:38 PDT 2020,1584682898,Bolivar,Mississippi,MS,33.799278,-90.884476,Bolivar County,MS BOLIVAR,34145,28011,11,Bolivar,True,2,0
Thu Mar 19 22:41:38 PDT 2020,1584682898,Coahoma,Mississippi,MS,34.22867,-90.603165,Coahoma County,MS COAHOMA,26151,28027,27,Coahoma,True,2,0
Thu Mar 19 22:41:38 PDT 2020,1584682898,DeSoto,Mississippi,MS,34.874266,-89.99324,DeSoto County,MS DESOTO,161252,28033,33,DeSoto,True,2,0
Thu Mar 19 22:41:38 PDT 2020,1584682898,Madison,Mississippi,MS,32.63437,-90.03416,Madison County,MS MADISON,95203,28089,89,Madison,True,1,0
Thu Mar 19 22:41:38 PDT 2020,1584682898,Perry,Mississippi,MS,31.169307,-88.988755,Perry County,MS PERRY,12250,28111,111,Perry,True,1,0
Thu Mar 19 22:41:38 PDT 2020,1584682898,Morton,North Dakota,ND,46.713789,-101.279743,Morton County,ND MORTON,27471,38059,59,Morton,True,4,0
Thu Mar 19 22:41:38 PDT 2020,1584682898,Park,Wyoming,WY,44.492387,-109.593597,Park County,WY PARK,28205,56029,29,Park,True,1,0
Thu Mar 19 22:41:38 PDT 2020,1584682898,Wichita,Texas,TX,33.991103,-98.716851,Wichita County,TX WICHITA,131500,48485,485,Wichita,True,1,0
Thu Mar 19 22:41:38 PDT 2020,1584682898,Washington,Arkansas,AR,35.971209,-94.218417,Washington County,AR WASHINGTON,203065,5143,143,Washington,True,1,0
Thu Mar 19 22:41:38 PDT 2020,1584682898,Penobscot,Maine,ME,45.390602,-68.657487,Penobscot County,ME PENOBSCOT,153923,23019,19,Penobscot,True,1,0
Thu Mar 19 22:41:38 PDT 2020,1584682898,Chenango,New York,NY,42.489732,-75.604905,Chenango County,NY CHENANGO,50477,36017,17,Chenango,True,1,0
Thu Mar 19 22:41:38 PDT 2020,1584682898,Essex,New York,NY,44.108971,-73.777573,Essex County,NY ESSEX,39370,36031,31,Essex,True,1,0
Thu Mar 19 22:41:38 PDT 2020,1584682898,Warren,New York,NY,43.555105,-73.838139,Warren County,NY WARREN,65707,36113,113,Warren,True,1,0
Thu Mar 19 22:41:38 PDT 2020,1584682898,Washington,New York,NY,43.312377,-73.439428,Washington County,NY WASHINGTON,63216,36115,115,Washington,True,1,0
Thu Mar 19 22:41:38 PDT 2020,1584682898,Hamilton,New York,NY,43.657879,-74.502456,Hamilton County,NY HAMILTON,4836,36041,41,Hamilton,True,1,0
Thu Mar 19 22:41:38 PDT 2020,1584682898,Unknown,New York,NY,,,,,,,,Unknown,True,28,0
Thu Mar 19 22:41:38 PDT 2020,1584682898,Rice,Minnesota,MN,44.350943,-93.298503,Rice County,MN RICE,64142,27131,131,Rice,True,1,0
Thu Mar 19 22:41:38 PDT 2020,1584682898,Guilford,North Carolina,NC,36.079065,-79.788665,Guilford County,NC GUILFORD,488406,37081,81,Guilford,True,2,0
Thu Mar 19 22:41:38 PDT 2020,1584682898,Moore,North Carolina,NC,35.310163,-79.480664,Moore County,NC MOORE,88247,37125,125,Moore,True,2,0
Thu Mar 19 22:41:38 PDT 2020,1584682898,Lincoln,North Carolina,NC,35.487825,-81.225176,Lincoln County,NC LINCOLN,78265,37109,109,Lincoln,True,1,0
Thu Mar 19 22:41:38 PDT 2020,1584682898,Lane,Oregon,OR,43.928276,-122.897678,Lane County,OR LANE,351715,41039,39,Lane,True,2,1
Thu Mar 19 22:41:38 PDT 2020,1584682898,Berks,Pennsylvania,PA,40.413957,-75.92686,Berks County,PA BERKS,411442,42011,11,Berks,True,1,0
Thu Mar 19 22:41:38 PDT 2020,1584682898,Lackawanna,Pennsylvania,PA,41.44025,-75.609587,Lackawanna County,PA LACKAWANNA,214437,42069,69,Lackawanna,True,2,0
Thu Mar 19 22:41:38 PDT 2020,1584682898,York,Pennsylvania,PA,39.921839,-76.728446,York County,PA YORK,434972,42133,133,York,True,2,0
Thu Mar 19 22:41:38 PDT 2020,1584682898,Faulkner,Arkansas,AR,35.146356,-92.324654,Faulkner County,AR FAULKNER,113237,5045,45,Faulkner,True,1,0
Thu Mar 19 22:41:38 PDT 2020,1584682898,Calhoun,Alabama,AL,33.771706,-85.822513,Calhoun County,AL CALHOUN,118572,1015,15,Calhoun,True,1,0
Thu Mar 19 22:41:38 PDT 2020,1584682898,Brazos,Texas,TX,30.656725,-96.302389,Brazos County,TX BRAZOS,194851,48041,41,Brazos,True,1,0
Thu Mar 19 22:41:38 PDT 2020,1584682898,Lavaca,Texas,TX,29.382578,-96.923633,Lavaca County,TX LAVACA,19263,48285,285,Lavaca,True,1,0
Thu Mar 19 22:41:38 PDT 2020,1584682898,Medina,Texas,TX,29.353661,-99.111085,Medina County,TX MEDINA,46006,48325,325,Medina,True,6,0
Thu Mar 19 22:41:38 PDT 2020,1584682898,Rusk,Texas,TX,32.109423,-94.756382,Rusk County,TX RUSK,53330,48401,401,Rusk,True,1,0
Thu Mar 19 22:41:38 PDT 2020,1584682898,Webb,Texas,TX,27.770584,-99.326641,Webb County,TX WEBB,250304,48479,479,Webb,True,1,0
Thu Mar 19 22:41:38 PDT 2020,1584682898,Leon,Florida,FL,30.45931,-84.2778,Leon County,FL LEON,275487,12073,73,Leon,True,4,0
Thu Mar 19 22:41:38 PDT 2020,1584682898,Sumter,Florida,FL,28.714294,-82.074715,Sumter County,FL SUMTER,93420,12119,119,Sumter,True,2,0
Thu Mar 19 22:41:38 PDT 2020,1584682898,Yuma,Colorado,CO,40.000631,-102.422649,Yuma County,CO YUMA,10043,8125,125,Yuma,True,1,0
Thu Mar 19 22:41:38 PDT 2020,1584682898,Ashland,Ohio,OH,40.843274,-82.270121,Ashland County,OH ASHLAND,53139,39005,5,Ashland,True,1,0
Thu Mar 19 22:41:38 PDT 2020,1584682898,Huron,Ohio,OH,41.14508,-82.594641,Huron County,OH HURON,59626,39077,77,Huron,True,1,0
Thu Mar 19 22:41:38 PDT 2020,1584682898,Delaware,Ohio,OH,40.278941,-83.007462,Delaware County,OH DELAWARE,174214,39041,41,Delaware,True,2,0
Thu Mar 19 22:41:38 PDT 2020,1584682898,Unknown,New Jersey,NJ,,,,,,,,Unknown,True,107,4
Thu Mar 19 22:41:38 PDT 2020,1584682898,Atlantic,New Jersey,NJ,39.469354,-74.633758,Atlantic County,NJ ATLANTIC,274549,34001,1,Atlantic,True,3,0
Thu Mar 19 22:41:38 PDT 2020,1584682898,Leavenworth,Kansas,KS,39.189511,-95.038977,Leavenworth County,KS LEAVENWORTH,76227,20103,103,Leavenworth,True,2,0
Thu Mar 19 22:41:38 PDT 2020,1584682898,Brown,Wisconsin,WI,44.473961,-87.995926,Brown County,WI BROWN,248007,55009,9,Brown,True,2,0
Thu Mar 19 22:41:38 PDT 2020,1584682898,La Crosse,Wisconsin,WI,43.908222,-91.111758,La Crosse County,WI LA CROSSE,114638,55063,63,La Crosse,True,2,0
Thu Mar 19 22:41:38 PDT 2020,1584682898,Washington,Wisconsin,WI,43.391156,-88.232917,Washington County,WI WASHINGTON,131887,55131,131,Washington,True,2,0
Thu Mar 19 22:41:38 PDT 2020,1584682898,St. Louis city,Missouri,MO,38.635699,-90.244582,St. Louis city,MO ST. LOUIS CITY,319294,29510,510,St. Louis city,True,5,0
Thu Mar 19 22:41:38 PDT 2020,1584682898,Cheatham,Tennessee,TN,36.25518,-87.100816,Cheatham County,TN CHEATHAM,39105,47021,21,Cheatham,True,1,0
Thu Mar 19 22:41:38 PDT 2020,1584682898,Robertson,Tennessee,TN,36.52753,-86.869377,Robertson County,TN ROBERTSON,66283,47147,147,Robertson,True,2,0
Thu Mar 19 22:41:38 PDT 2020,1584682898,Sumner,Tennessee,TN,36.470015,-86.458517,Sumner County,TN SUMNER,160645,47165,165,Sumner,True,3,0
Thu Mar 19 22:41:38 PDT 2020,1584682898,Kendall,Illinois,IL,41.58814,-88.430626,Kendall County,IL KENDALL,114736,17093,93,Kendall,True,2,0
Thu Mar 19 22:41:38 PDT 2020,1584682898,Madison,Illinois,IL,38.827082,-89.900195,Madison County,IL MADISON,269282,17119,119,Madison,True,1,0
Thu Mar 19 22:41:38 PDT 2020,1584682898,Unknown,Illinois,IL,,,,,,,,Unknown,True,5,0
Thu Mar 19 22:41:38 PDT 2020,1584682898,Jackson,Illinois,IL,37.786096,-89.381212,Jackson County,IL JACKSON,60218,17077,77,Jackson,True,1,0
Thu Mar 19 22:41:38 PDT 2020,1584682898,Williamson,Illinois,IL,37.730353,-88.930018,Williamson County,IL WILLIAMSON,66357,17199,199,Williamson,True,1,0
Thu Mar 19 22:41:38 PDT 2020,1584682898,Washington,Illinois,IL,38.35314,-89.417187,Washington County,IL WASHINGTON,14716,17189,189,Washington,True,1,0
Thu Mar 19 22:41:38 PDT 2020,1584682898,LaSalle,Illinois,IL,41.343341,-88.885931,LaSalle County,IL LASALLE,113924,17099,99,LaSalle,True,1,0
Thu Mar 19 22:41:38 PDT 2020,1584682898,Kankakee,Illinois,IL,41.139494,-87.861125,Kankakee County,IL KANKAKEE,113449,17091,91,Kankakee,True,1,0
Thu Mar 19 22:41:38 PDT 2020,1584682898,Columbia,Georgia,GA,33.550556,-82.251342,Columbia County,GA COLUMBIA,124053,13073,73,Columbia,True,1,0
Thu Mar 19 22:41:38 PDT 2020,1584682898,Houston,Georgia,GA,32.458381,-83.662856,Houston County,GA HOUSTON,139900,13153,153,Houston,True,1,0
Thu Mar 19 22:41:38 PDT 2020,1584682898,New Hanover,North Carolina,NC,34.177466,-77.871378,New Hanover County,NC NEW HANOVER,202667,37129,129,New Hanover,True,1,0
Thu Mar 19 22:41:38 PDT 2020,1584682898,Franklin,Massachusetts,MA,42.583791,-72.591655,Franklin County,MA FRANKLIN,71372,25011,11,Franklin,True,1,0
Thu Mar 19 22:41:38 PDT 2020,1584682898,Middlesex,Connecticut,CT,41.434525,-72.524227,Middlesex County,CT MIDDLESEX,165676,9007,7,Middlesex,True,3,0
Thu Mar 19 22:41:38 PDT 2020,1584682898,Gaston,North Carolina,NC,35.293344,-81.177256,Gaston County,NC GASTON,206086,37071,71,Gaston,True,1,0
Thu Mar 19 22:41:38 PDT 2020,1584682898,Talladega,Alabama,AL,33.369277,-86.175805,Talladega County,AL TALLADEGA,82291,1121,121,Talladega,True,1,0
Thu Mar 19 22:41:38 PDT 2020,1584682898,Lee,South Carolina,SC,34.15864,-80.251209,Lee County,SC LEE,19220,45061,61,Lee,True,1,0
Thu Mar 19 22:41:38 PDT 2020,1584682898,Charles City,Virginia,VA,37.361048,-77.054171,Charles City County,VA CHARLES CITY,7256,51036,36,Charles City,True,1,0
Thu Mar 19 22:41:38 PDT 2020,1584682898,Washington,Iowa,IA,41.329401,-91.725052,Washington County,IA WASHINGTON,21704,19183,183,Washington,True,1,0
Thu Mar 19 22:41:38 PDT 2020,1584682898,Winneshiek,Iowa,IA,43.292989,-91.850788,Winneshiek County,IA WINNESHIEK,21056,19191,191,Winneshiek,True,1,0
Thu Mar 19 22:41:38 PDT 2020,1584682898,Walton,Florida,FL,30.631211,-86.176614,Walton County,FL WALTON,55043,12131,131,Walton,True,1,0
Thu Mar 19 22:41:38 PDT 2020,1584682898,Clark,Ohio,OH,39.917032,-83.783676,Clark County,OH CLARK,138333,39023,23,Clark,True,1,0
Thu Mar 19 22:41:38 PDT 2020,1584682898,Miami,Ohio,OH,40.053326,-84.228413,Miami County,OH MIAMI,102506,39109,109,Miami,True,1,0
Thu Mar 19 22:41:38 PDT 2020,1584682898,Hoke,North Carolina,NC,35.017233,-79.241964,Hoke County,NC HOKE,46952,37093,93,Hoke,True,1,0
Thu Mar 19 22:41:38 PDT 2020,1584682898,Unknown,Louisiana,LA,,,,,,,,Unknown,True,4,0
Thu Mar 19 22:41:38 PDT 2020,1584682898,Lubbock,Texas,TX,33.611469,-101.819944,Lubbock County,TX LUBBOCK,278831,48303,303,Lubbock,True,3,0
Thu Mar 19 22:41:38 PDT 2020,1584682898,Adams,Nebraska,NE,40.520632,-98.500044,Adams County,NE ADAMS,31364,31001,1,Adams,True,1,0
Thu Mar 19 22:41:38 PDT 2020,1584682898,San Benito,California,CA,36.610702,-121.085296,San Benito County,CA SAN BENITO,55269,6069,69,San Benito,True,2,1
Thu Mar 19 22:41:38 PDT 2020,1584682898,Mercer,West Virginia,WV,37.403448,-81.106456,Mercer County,WV MERCER,62264,54055,55,Mercer,True,1,0
Thu Mar 19 22:41:38 PDT 2020,1584682898,St. Charles,Missouri,MO,38.781102,-90.674915,St. Charles County,MO ST. CHARLES,360485,29183,183,St. Charles,True,1,0
Thu Mar 19 22:41:38 PDT 2020,1584682898,Bradley,Arkansas,AR,33.463819,-92.168164,Bradley County,AR BRADLEY,11508,5011,11,Bradley,True,1,0
Thu Mar 19 22:41:38 PDT 2020,1584682898,Twin Falls,Idaho,ID,42.352309,-114.665639,Twin Falls County,ID TWIN FALLS,77230,16083,83,Twin Falls,True,1,0
Thu Mar 19 22:41:38 PDT 2020,1584682898,Franklin,Kentucky,KY,38.234919,-84.868786,Franklin County,KY FRANKLIN,49285,21073,73,Franklin,True,1,0
Thu Mar 19 22:41:38 PDT 2020,1584682898,Kenton,Kentucky,KY,38.930477,-84.533492,Kenton County,KY KENTON,159720,21117,117,Kenton,True,1,0
Thu Mar 19 22:41:38 PDT 2020,1584682898,Warren,Kentucky,KY,36.995634,-86.423579,Warren County,KY WARREN,113792,21227,227,Warren,True,1,0
Thu Mar 19 22:41:38 PDT 2020,1584682898,Coconino,Arizona,AZ,35.829692,-111.773728,Coconino County,AZ COCONINO,134421,4005,5,Coconino,True,2,0
Thu Mar 19 22:41:38 PDT 2020,1584682898,Mendocino,California,CA,39.432388,-123.442881,Mendocino County,CA MENDOCINO,87841,6045,45,Mendocino,True,1,0
Thu Mar 19 22:41:38 PDT 2020,1584682898,Belknap,New Hampshire,NH,43.519109,-71.425366,Belknap County,NH BELKNAP,60088,33001,1,Belknap,True,3,0
Thu Mar 19 22:41:38 PDT 2020,1584682898,Merrimack,New Hampshire,NH,43.299485,-71.68013,Merrimack County,NH MERRIMACK,146445,33013,13,Merrimack,True,2,0
Thu Mar 19 22:41:38 PDT 2020,1584682898,Orange,Vermont,VT,44.003392,-72.369687,Orange County,VT ORANGE,28936,50017,17,Orange,True,2,0
Thu Mar 19 22:41:38 PDT 2020,1584682898,Mason,Washington,WA,47.354126,-123.17385,Mason County,WA MASON,60699,53045,45,Mason,True,1,0
Thu Mar 19 22:41:38 PDT 2020,1584682898,Calvert,Maryland,MD,38.521357,-76.525864,Calvert County,MD CALVERT,88737,24009,9,Calvert,True,1,0
Thu Mar 19 22:41:38 PDT 2020,1584682898,Owen,Indiana,IN,39.317339,-86.838845,Owen County,IN OWEN,21575,18119,119,Owen,True,1,0
Thu Mar 19 22:41:38 PDT 2020,1584682898,Tippecanoe,Indiana,IN,40.38926,-86.893943,Tippecanoe County,IN TIPPECANOE,172780,18157,157,Tippecanoe,True,1,0
Thu Mar 19 22:41:38 PDT 2020,1584682898,Wayne,Indiana,IN,39.863091,-85.006735,Wayne County,IN WAYNE,68917,18177,177,Wayne,True,1,0
Thu Mar 19 22:41:38 PDT 2020,1584682898,Lafayette,Louisiana,LA,30.206507,-92.06417,Lafayette Parish,LA LAFAYETTE,221578,22055,55,Lafayette,True,3,0
Thu Mar 19 22:41:38 PDT 2020,1584682898,West Baton Rouge,Louisiana,LA,30.464052,-91.309808,West Baton Rouge Parish,LA WEST BATON ROUGE,23788,22121,121,West Baton Rouge,True,2,0
Thu Mar 19 22:41:38 PDT 2020,1584682898,St. James,Louisiana,LA,30.02482,-90.793956,St. James Parish,LA ST. JAMES,22102,22093,93,St. James,True,1,1
Thu Mar 19 22:41:38 PDT 2020,1584682898,Plaquemines,Louisiana,LA,29.402337,-89.298489,Plaquemines Parish,LA PLAQUEMINES,23042,22075,75,Plaquemines,True,1,0
Thu Mar 19 22:41:38 PDT 2020,1584682898,Eau Claire,Wisconsin,WI,44.726355,-91.286414,Eau Claire County,WI EAU CLAIRE,98736,55035,35,Eau Claire,True,1,0
Thu Mar 19 22:41:38 PDT 2020,1584682898,Holmes,Mississippi,MS,33.125942,-90.091197,Holmes County,MS HOLMES,19198,28051,51,Holmes,True,1,0
Thu Mar 19 22:41:38 PDT 2020,1584682898,Yazoo,Mississippi,MS,32.765675,-90.387928,Yazoo County,MS YAZOO,28065,28163,163,Yazoo,True,1,0
Thu Mar 19 22:41:38 PDT 2020,1584682898,Smith,Mississippi,MS,32.019033,-89.494973,Smith County,MS SMITH,16491,28129,129,Smith,True,1,0
Thu Mar 19 22:41:38 PDT 2020,1584682898,Jones,Mississippi,MS,31.621044,-89.167262,Jones County,MS JONES,67761,28067,67,Jones,True,1,0
Thu Mar 19 22:41:38 PDT 2020,1584682898,Walthall,Mississippi,MS,31.164492,-90.103431,Walthall County,MS WALTHALL,15443,28147,147,Walthall,True,1,0
Thu Mar 19 22:41:38 PDT 2020,1584682898,Wilkinson,Mississippi,MS,31.160249,-91.325567,Wilkinson County,MS WILKINSON,9878,28157,157,Wilkinson,True,1,0
Thu Mar 19 22:41:38 PDT 2020,1584682898,Winston,Mississippi,MS,33.078724,-89.037391,Winston County,MS WINSTON,19198,28159,159,Winston,True,1,0
Thu Mar 19 22:41:38 PDT 2020,1584682898,Hancock,Maine,ME,44.564906,-68.370703,Hancock County,ME HANCOCK,54418,23009,9,Hancock,True,1,0
Thu Mar 19 22:41:38 PDT 2020,1584682898,Chambers,Alabama,AL,32.917943,-85.391812,Chambers County,AL CHAMBERS,34215,1017,17,Chambers,True,1,0
Thu Mar 19 22:41:38 PDT 2020,1584682898,Walker,Alabama,AL,33.791571,-87.301092,Walker County,AL WALKER,67023,1127,127,Walker,True,1,0
Thu Mar 19 22:41:38 PDT 2020,1584682898,Hamilton,Ohio,OH,39.196927,-84.544187,Hamilton County,OH HAMILTON,802374,39061,61,Hamilton,True,2,0
Thu Mar 19 22:41:38 PDT 2020,1584682898,Hernando,Florida,FL,28.567911,-82.464835,Hernando County,FL HERNANDO,172778,12053,53,Hernando,True,4,0
Thu Mar 19 22:41:38 PDT 2020,1584682898,Adams,Pennsylvania,PA,39.869471,-77.21773,Adams County,PA ADAMS,101407,42001,1,Adams,True,1,0
Thu Mar 19 22:41:38 PDT 2020,1584682898,Lancaster,Pennsylvania,PA,40.041992,-76.250198,Lancaster County,PA LANCASTER,519445,42071,71,Lancaster,True,2,0
Thu Mar 19 22:41:38 PDT 2020,1584682898,Lebanon,Pennsylvania,PA,40.367344,-76.458009,Lebanon County,PA LEBANON,133568,42075,75,Lebanon,True,1,0
Thu Mar 19 22:41:38 PDT 2020,1584682898,Richland,Ohio,OH,40.774167,-82.542715,Richland County,OH RICHLAND,124475,39139,139,Richland,True,1,0
Thu Mar 19 22:41:38 PDT 2020,1584682898,Clinton,Michigan,MI,42.950455,-84.591695,Clinton County,MI CLINTON,75382,26037,37,Clinton,True,1,0
Thu Mar 19 22:41:38 PDT 2020,1584682898,Custer,Oklahoma,OK,35.645601,-98.997386,Custer County,OK CUSTER,27469,40039,39,Custer,True,1,0
Thu Mar 19 22:41:38 PDT 2020,1584682898,Grady,Oklahoma,OK,35.021058,-97.88689,Grady County,OK GRADY,52431,40051,51,Grady,True,1,0
Thu Mar 19 22:41:38 PDT 2020,1584682898,Logan,Oklahoma,OK,35.914151,-97.450764,Logan County,OK LOGAN,41848,40083,83,Logan,True,1,0
Thu Mar 19 22:41:38 PDT 2020,1584682898,McClain,Oklahoma,OK,35.016414,-97.449811,McClain County,OK MCCLAIN,34506,40087,87,McClain,True,1,0
Thu Mar 19 22:41:38 PDT 2020,1584682898,Stephens,Oklahoma,OK,34.481361,-97.855607,Stephens County,OK STEPHENS,45048,40137,137,Stephens,True,1,0
Thu Mar 19 22:41:38 PDT 2020,1584682898,Washington,Oklahoma,OK,36.70438,-95.906155,Washington County,OK WASHINGTON,50976,40147,147,Washington,True,1,0
Thu Mar 19 22:41:38 PDT 2020,1584682898,Westmoreland,Pennsylvania,PA,40.311068,-79.466688,Westmoreland County,PA WESTMORELAND,365169,42129,129,Westmoreland,True,2,0
Thu Mar 19 22:41:38 PDT 2020,1584682898,Early,Georgia,GA,31.324191,-84.906723,Early County,GA EARLY,11008,13099,99,Early,True,3,1
Thu Mar 19 22:41:38 PDT 2020,1584682898,Glynn,Georgia,GA,31.212746,-81.496517,Glynn County,GA GLYNN,79626,13127,127,Glynn,True,2,0
Thu Mar 19 22:41:38 PDT 2020,1584682898,Laurens,Georgia,GA,32.39322,-82.926317,Laurens County,GA LAURENS,48434,13175,175,Laurens,True,2,0
Thu Mar 19 22:41:38 PDT 2020,1584682898,Rockdale,Georgia,GA,33.652081,-84.02637,Rockdale County,GA ROCKDALE,85215,13247,247,Rockdale,True,1,0
Thu Mar 19 22:41:38 PDT 2020,1584682898,Bibb,Georgia,GA,32.808844,-83.694193,Bibb County,GA BIBB,155547,13021,21,Bibb,True,1,0
Thu Mar 19 22:41:38 PDT 2020,1584682898,Peach,Georgia,GA,32.571324,-83.831978,Peach County,GA PEACH,27695,13225,225,Peach,True,1,0
Thu Mar 19 22:41:38 PDT 2020,1584682898,Sussex,New Jersey,NJ,41.137424,-74.691855,Sussex County,NJ SUSSEX,149265,34037,37,Sussex,True,2,0
Thu Mar 19 22:41:38 PDT 2020,1584682898,Cape May,New Jersey,NJ,39.086142,-74.847716,Cape May County,NJ CAPE MAY,97265,34009,9,Cape May,True,1,0
Thu Mar 19 22:41:38 PDT 2020,1584682898,Teton,Wyoming,WY,44.04932,-110.588102,Teton County,WY TETON,21294,56039,39,Teton,True,1,0
Thu Mar 19 22:41:38 PDT 2020,1584682898,DeWitt,Texas,TX,29.082342,-97.361656,DeWitt County,TX DEWITT,20097,48123,123,DeWitt,True,1,0
Thu Mar 19 22:41:38 PDT 2020,1584682898,Johnson,Texas,TX,32.379511,-97.364823,Johnson County,TX JOHNSON,150934,48251,251,Johnson,True,2,0
Thu Mar 19 22:41:38 PDT 2020,1584682898,McLennan,Texas,TX,31.549493,-97.201472,McLennan County,TX MCLENNAN,234906,48309,309,McLennan,True,7,0
Thu Mar 19 22:41:38 PDT 2020,1584682898,Williamson,Texas,TX,30.64903,-97.605069,Williamson County,TX WILLIAMSON,422679,48491,491,Williamson,True,2,0
Thu Mar 19 22:41:38 PDT 2020,1584682898,Wicomico,Maryland,MD,38.367389,-75.632206,Wicomico County,MD WICOMICO,98733,24045,45,Wicomico,True,1,0
Thu Mar 19 22:41:38 PDT 2020,1584682898,Mower,Minnesota,MN,43.666249,-92.759514,Mower County,MN MOWER,39163,27099,99,Mower,True,1,0
Thu Mar 19 22:41:38 PDT 2020,1584682898,Scott,Minnesota,MN,44.651932,-93.534553,Scott County,MN SCOTT,129928,27139,139,Scott,True,1,0
Thu Mar 19 22:41:38 PDT 2020,1584682898,Wadena,Minnesota,MN,46.586784,-94.988331,Wadena County,MN WADENA,13843,27159,159,Wadena,True,1,0
Thu Mar 19 22:41:38 PDT 2020,1584682898,Cherokee,Kansas,KS,37.169392,-94.845698,Cherokee County,KS CHEROKEE,21603,20021,21,Cherokee,True,1,0
Thu Mar 19 22:41:38 PDT 2020,1584682898,Morris,Kansas,KS,38.687696,-96.644905,Morris County,KS MORRIS,5923,20127,127,Morris,True,2,0
Thu Mar 19 22:41:38 PDT 2020,1584682898,Linn,Kansas,KS,38.216549,-94.844932,Linn County,KS LINN,9656,20107,107,Linn,True,1,0
Thu Mar 19 22:41:38 PDT 2020,1584682898,Montgomery,Ohio,OH,39.755218,-84.290545,Montgomery County,OH MONTGOMERY,535153,39113,113,Montgomery,True,1,0
Thu Mar 19 22:41:38 PDT 2020,1584682898,Bayfield,Wisconsin,WI,46.634199,-91.177282,Bayfield County,WI BAYFIELD,15014,55007,7,Bayfield,True,1,0
Thu Mar 19 22:41:38 PDT 2020,1584682898,Calumet,Wisconsin,WI,44.07841,-88.212132,Calumet County,WI CALUMET,48971,55015,15,Calumet,True,1,0
Thu Mar 19 22:41:38 PDT 2020,1584682898,Columbia,Wisconsin,WI,43.471882,-89.330472,Columbia County,WI COLUMBIA,56833,55021,21,Columbia,True,4,0
Thu Mar 19 22:41:38 PDT 2020,1584682898,Ozaukee,Wisconsin,WI,43.360715,-87.496553,Ozaukee County,WI OZAUKEE,86395,55089,89,Ozaukee,True,3,1
Thu Mar 19 22:41:38 PDT 2020,1584682898,Sauk,Wisconsin,WI,43.427998,-89.943329,Sauk County,WI SAUK,61976,55111,111,Sauk,True,1,0
Thu Mar 19 22:41:38 PDT 2020,1584682898,Walworth,Wisconsin,WI,42.66811,-88.541731,Walworth County,WI WALWORTH,102228,55127,127,Walworth,True,2,0
Thu Mar 19 22:41:38 PDT 2020,1584682898,Unknown,Nevada,NV,,,,,,,,Unknown,True,5,0
Thu Mar 19 22:41:38 PDT 2020,1584682898,Cache,Utah,UT,41.734225,-111.744581,Cache County,UT CACHE,112656,49005,5,Cache,True,2,0
Thu Mar 19 22:41:38 PDT 2020,1584682898,Cumberland,Tennessee,TN,35.952398,-84.994761,Cumberland County,TN CUMBERLAND,56053,47035,35,Cumberland,True,1,0
Thu Mar 19 22:41:38 PDT 2020,1584682898,Dyer,Tennessee,TN,36.054196,-89.398306,Dyer County,TN DYER,38335,47045,45,Dyer,True,1,0
Thu Mar 19 22:41:38 PDT 2020,1584682898,Montgomery,Tennessee,TN,36.500354,-87.380887,Montgomery County,TN MONTGOMERY,172331,47125,125,Montgomery,True,1,0
Thu Mar 19 22:41:38 PDT 2020,1584682898,Wilson,Tennessee,TN,36.148476,-86.29021,Wilson County,TN WILSON,113993,47189,189,Wilson,True,1,0
Thu Mar 19 22:41:38 PDT 2020,1584682898,Unknown,Tennessee,TN,,,,,,,,Unknown,True,22,0
Thu Mar 19 22:41:38 PDT 2020,1584682898,Eaton,Michigan,MI,42.589614,-84.846524,Eaton County,MI EATON,107759,26045,45,Eaton,True,2,0
Thu Mar 19 22:41:38 PDT 2020,1584682898,Livingston,Michigan,MI,42.602532,-83.911718,Livingston County,MI LIVINGSTON,180967,26093,93,Livingston,True,1,0
Thu Mar 19 22:41:38 PDT 2020,1584682898,Midland,Michigan,MI,43.648378,-84.379219,Midland County,MI MIDLAND,83629,26111,111,Midland,True,1,0
Thu Mar 19 22:41:38 PDT 2020,1584682898,San Miguel,New Mexico,NM,35.476876,-104.803515,San Miguel County,NM SAN MIGUEL,29393,35047,47,San Miguel,True,1,0
Thu Mar 19 22:41:38 PDT 2020,1584682898,Unknown,Michigan,MI,,,,,,,,Unknown,True,10,0
Thu Mar 19 22:41:38 PDT 2020,1584682898,Crane,Texas,TX,31.422796,-102.487774,Crane County,TX CRANE,4375,48103,103,Crane,True,1,0
Thu Mar 19 22:41:38 PDT 2020,1584682898,Tolland,Connecticut,CT,41.858076,-72.340977,Tolland County,CT TOLLAND,152691,9013,13,Tolland,True,4,0
