date2,unixtime,adm0_a3,nyt_name,location,sublocation,lat,lon,active,in_region_table,in_country_count,travel_warning,source,override_count,override_deaths,override_date,world_map_label,world_map_label_desktop_only,world_map_label_name,asia_map_label,asia_map_label_desktop_only,eu_map_label,eu_map_label_desktop_only,mobile_table_name,sentence_name,label_offset_y,label,postal,confirmed,deaths,us_state_label,name
Fri Mar  6 20:33:34 PST 2020,1583555614,AUS,Australia,Australia,,-25.274,133.775,True,True,True,,,,,DO NOT OVERRIDE,True,True,Australia,,,,,,,,Australia,,0,0,,
Fri Mar  6 20:33:34 PST 2020,1583555614,CAN,Canada,Canada,,56.13,-106.347,True,True,True,,,,,DO NOT OVERRIDE,True,True,Canada,,,,,,,,Canada,,0,0,,
Fri Mar  6 20:33:34 PST 2020,1583555614,GEO,Georgia,Georgia,,42.315,43.357,True,True,True,,,,,,,,Georgia,,,,,,,,Georgia,,0,0,,
Fri Mar  6 20:33:34 PST 2020,1583555614,SEN,Senegal,Senegal,,14.497,-14.452,True,True,True,,,,,,,,Senegal,,,,,,,,Senegal,,0,0,,
Fri Mar  6 20:33:34 PST 2020,1583555614,CHN,Mainland China,Mainland China,,35.862,104.195,True,True,True,3,,,,DO NOT OVERRIDE,True,,China,,,,,China,China,,Mainland China,,0,0,,
Fri Mar  6 20:33:34 PST 2020,1583555614,USA,United States,US,,37.09,-95.713,True,True,True,,,,,,True,,U.S.,,,,,U.S.,the United States,,US,,0,0,,
Fri Mar  6 20:33:34 PST 2020,1583555614,CHN,,Mainland China,Tibet,31.6,84.27,True,,,,,,,,,,Mainland China,,,,,,,,Tibet (Mainland China),,0,0,,
Fri Mar  6 20:33:34 PST 2020,1583555614,AUS,,Australia,From Diamond Princess,-36.56,143.25,True,,,,,,,,,,Australia,,,,,,,,From Diamond Princess (Australia),,0,0,,
Fri Mar  6 20:33:34 PST 2020,1583555614,AUS,,Australia,Western Australia,-36.56,143.25,True,,,,,,,,,,Australia,,,,,,,,Western Australia (Australia),,0,0,,
Fri Mar  6 20:33:34 PST 2020,1583555614,CAN,,Canada,"London, ON",51.4,-87.12,True,,,,,,,,,,Canada,,,,,,,,"London, ON (Canada)",,0,0,,
Fri Mar  6 20:33:34 PST 2020,1583555614,CAN,,Canada,Ontario,51.4,-87.12,True,,,,,,,,,,Canada,,,,,,,,Ontario (Canada),,0,0,,
Fri Mar  6 20:33:34 PST 2020,1583555614,CAN,,Canada,"Montreal, QC",51.4,-87.12,True,,,,,,,,,,Canada,,,,,,,,"Montreal, QC (Canada)",,0,0,,
Fri Mar  6 20:33:34 PST 2020,1583555614,AFG,Afghanistan,Afghanistan,,33.939,67.71,True,True,True,,JHU issue. Pls keep it,1,,Mar. 3,,,Afghanistan,,,,,,,,Afghanistan,,1,0,,
Fri Mar  6 20:33:34 PST 2020,1583555614,ARM,Armenia,Armenia,,40.069,45.038,True,True,True,,JHU issue. Pls keep it,1,,Mar. 3,,,Armenia,,,,,,,,Armenia,,1,0,,
Fri Mar  6 20:33:34 PST 2020,1583555614,BTN,Bhutan,Bhutan,,27.514,90.434,True,True,True,,JHU,1,,Mar. 6,,,Bhutan,,,,,,,,Bhutan,,1,0,,
Fri Mar  6 20:33:34 PST 2020,1583555614,CHL,Chile,Chile,,-35.675,-71.543,True,True,True,,"JHU has it on the dashboard, but somehow not in the sheet.",1,,Mar. 3,,,Chile,,,,,,,,Chile,,1,0,,
Fri Mar  6 20:33:34 PST 2020,1583555614,DOM,Dominican Republic,Dominican Republic,,18.736,-70.163,True,True,True,,"JHU has it on the dashboard, but somehow not in the sheet.",1,,Mar. 3,,,Dominican Republic,,,,,,,,Dominican Republic,,1,0,,
Fri Mar  6 20:33:34 PST 2020,1583555614,FRO,Faroe Islands,,,61.893,-6.912,True,True,False,,JHU issue,1,,Mar. 4,,,,,,,,,,,,,1,0,,
Fri Mar  6 20:33:34 PST 2020,1583555614,JOR,Jordan,Jordan,,30.585,36.238,True,True,True,,NYT. pls keep. JHU doesn't have it.,1,,Mar. 2,,,Jordan,,,,,,,,Jordan,,1,0,,
Fri Mar  6 20:33:34 PST 2020,1583555614,KHM,Cambodia,Cambodia,,12.566,104.991,True,True,True,,"JHU has it on the dashboard, but somehow not in the sheet.",1,0,Mar. 3,,,Cambodia,,,,,,,,Cambodia,,1,0,,
Fri Mar  6 20:33:34 PST 2020,1583555614,LKA,Sri Lanka,Sri Lanka,,7.873,80.772,True,True,True,,"JHU has it on the dashboard, but somehow not in the sheet.",1,,Mar. 3,,,Sri Lanka,,,,,,,,Sri Lanka,,1,0,,
Fri Mar  6 20:33:34 PST 2020,1583555614,LTU,Lithuania,Lithuania,,55.169,23.881,True,True,True,,"JHU has it on the dashboard, but somehow not in the sheet.",1,,Mar. 3,,,Lithuania,,,,,,,,Lithuania,,1,0,,
Fri Mar  6 20:33:34 PST 2020,1583555614,MCO,Monaco,Monaco,,43.75,7.413,True,True,True,,JH dashboard but not sheet,1,,Mar. 3,,,Monaco,,,,,,,,Monaco,,1,0,,
Fri Mar  6 20:33:34 PST 2020,1583555614,MKD,North Macedonia,North Macedonia,,41.609,21.745,True,True,True,,JHU issue; NYT name change as of Feb. 11,1,,Mar. 4,,,North Macedonia,,,,,,,,North Macedonia,,1,0,,
Fri Mar  6 20:33:34 PST 2020,1583555614,NGA,Nigeria,Nigeria,,9.082,8.675,True,True,True,,JH dashboard but not sheet,1,,Mar. 3,True,True,Nigeria,top,,,,,,,Nigeria,,1,0,,
Fri Mar  6 20:33:34 PST 2020,1583555614,NPL,Nepal,Nepal,,28.395,84.124,True,True,True,,JHU dashboard but not sheet,1,,Mar. 3,,,Nepal,left,,,,,,,Nepal,,1,0,,
Fri Mar  6 20:33:34 PST 2020,1583555614,UKR,Ukraine,Ukraine,,48.379,31.166,True,True,True,,JHU table,1,,,,,Ukraine,,,,,,,,Ukraine,,1,0,,
Fri Mar  6 20:33:34 PST 2020,1583555614,ZAF,South Africa,South Africa,,-30.559,22.938,True,True,True,,JHU,1,,Mar. 6,,,South Africa,,,,,,,,South Africa,,1,0,,
Fri Mar  6 20:33:34 PST 2020,1583555614,AND,Andorra,Andorra,,42.549,1.585,True,True,True,,JH dashboard but not sheet,1,,Mar. 3,,,Andorra,,,,,,,,Andorra,,1,0,,
Fri Mar  6 20:33:34 PST 2020,1583555614,LVA,Latvia,Latvia,,56.88,24.603,True,True,True,,JH dashboard but not sheet,1,,Mar. 3,,,Latvia,,,,,,,,Latvia,,1,0,,
Fri Mar  6 20:33:34 PST 2020,1583555614,GIB,Gibraltar,Gibraltar,,36.138,-5.345,True,True,False,,https://twitter.com/GBCNewsroom/status/1234774651601063937,1,,Mar. 3,,,Gibraltar,,,,,,,,Gibraltar,,1,0,,
Fri Mar  6 20:33:34 PST 2020,1583555614,TUN,Tunisia,Tunisia,,33.887,9.537,True,True,True,,JH dashboard but not sheet,1,,Mar. 3,,,Tunisia,,,,,,,,Tunisia,,1,0,,
Fri Mar  6 20:33:34 PST 2020,1583555614,LIE,Liechtenstein,Liechtenstein,,47.166,9.555,True,True,True,,JH dashboard but not sheet,1,,Mar. 3,,,Liechtenstein,,,,,,,,Liechtenstein,,1,0,,
Fri Mar  6 20:33:34 PST 2020,1583555614,USA,,US,Wisconsin,43.78444,-88.787868,True,,,,,,,,,,,,,,,,,,,WI,1,0,Wis.,US
Fri Mar  6 20:33:34 PST 2020,1583555614,USA,,US,Utah,39.32098,-111.093731,True,,,,,,,,,,,,,,,,,,,UT,1,0,Utah,US
Fri Mar  6 20:33:34 PST 2020,1583555614,USA,,US,Tennessee,35.517491,-86.580447,True,,,,,,,,,,,,,,,,,,,TN,1,0,Tenn.,US
Fri Mar  6 20:33:34 PST 2020,1583555614,USA,,US,Indiana,40.551217,-85.602364,True,,,,,,,,,,,,,,,,,,,IN,1,0,Ind.,US
Fri Mar  6 20:33:34 PST 2020,1583555614,USA,,US,Minnesota,46.729553,-94.6859,True,,,,,,,,,,,,,,,,,,,MN,1,0,Minn.,US
Fri Mar  6 20:33:34 PST 2020,1583555614,USA,,US,Kentucky,37.839333,-84.270018,True,,,,,,,,,,,,,,,,,,,KY,1,0,Ky.,US
Fri Mar  6 20:33:34 PST 2020,1583555614,USA,,US,Oklahoma,35.007752,-97.092877,True,,,,,,,,,,,,,,,,,,,OK,1,0,Okla.,US
Fri Mar  6 20:33:34 PST 2020,1583555614,BIH,Bosnia and Herzegovina,,,43.916,17.679,True,True,True,,JHU issue,2,,Mar. 6,,,,,,,,,,,,,2,0,,
Fri Mar  6 20:33:34 PST 2020,1583555614,HUN,Hungary,Hungary,,47.162,19.503,True,True,True,,JHU issue,2,,Mar. 6,,,Hungary,,,,,,,,Hungary,,2,0,,
Fri Mar  6 20:33:34 PST 2020,1583555614,LUX,Luxembourg,Luxembourg,,49.815,6.13,True,True,True,,"JHU has it on the dashboard, but somehow not in the sheet.",2,,Mar. 6,,,Luxembourg,,,,,,,,Luxembourg,,2,0,,
Fri Mar  6 20:33:34 PST 2020,1583555614,IDN,Indonesia,Indonesia,,-0.789,113.921,True,True,True,,JHU issue. Pls keep,2,,Mar. 5,True,True,Indonesia,,,,,,,,Indonesia,,2,0,,
Fri Mar  6 20:33:34 PST 2020,1583555614,MAR,Morocco,Morocco,,31.792,-7.093,True,True,True,,JH dashboard but not sheet,2,,Mar. 6,,,Morocco,,,,,,,,Morocco,,2,0,,
Fri Mar  6 20:33:34 PST 2020,1583555614,USA,,US,Oregon,43.804133,-120.554201,True,,,,,,,,,,,,,,,,,,,OR,2,0,Ore.,US
Fri Mar  6 20:33:34 PST 2020,1583555614,USA,,US,New Hampshire,43.193852,-71.572395,True,,,,,,,,,,,,,,,,,,,NH,2,0,N.H.,US
Fri Mar  6 20:33:34 PST 2020,1583555614,USA,,US,North Carolina,35.759573,-79.0193,True,,,,,,,,,,,,,,,,,,,NC,2,0,N.C.,US
Fri Mar  6 20:33:34 PST 2020,1583555614,USA,,US,Colorado,39.550051,-105.782067,True,,,,,,,,,,,,,,,,,,,CO,2,0,Colo.,US
Fri Mar  6 20:33:34 PST 2020,1583555614,USA,,US,Nevada,38.80261,-116.419389,True,,,,,,,,,,,,,,,,,,,NV,2,0,Nev.,US
Fri Mar  6 20:33:34 PST 2020,1583555614,USA,,US,Pennsylvania,41.203322,-77.194525,True,,,,,,,,,,,,,,,,,,,PA,2,0,Pa.,US
Fri Mar  6 20:33:34 PST 2020,1583555614,ARG,Argentina,Argentina,,-38.416,-63.617,True,True,True,,JH dashboard but not sheet,3,,Mar. 6,,,Argentina,,,,,,,,Argentina,,3,0,,
Fri Mar  6 20:33:34 PST 2020,1583555614,USA,,US,Arizona,34.048928,-111.093731,True,,,,,,,,,,,,,,,,,,,AZ,3,0,Ariz.,US
Fri Mar  6 20:33:34 PST 2020,1583555614,USA,,US,Rhode Island,39.6,-71.64,True,,,,,,,,,,,,,,,,,,,RI,3,0,R.I.,US
Fri Mar  6 20:33:34 PST 2020,1583555614,USA,,US,Georgia,32.157435,-82.907123,True,,,,,,,,,,,,,,,,,,,GA,3,0,Ga.,US
Fri Mar  6 20:33:34 PST 2020,1583555614,USA,,US,New Jersey,40.058324,-74.405661,True,,,,,,,,,,,,,,,,,,,NJ,3,0,N.J.,US
Fri Mar  6 20:33:34 PST 2020,1583555614,USA,,US,Maryland,39.045755,-76.641271,True,,,,,,,,,,,,,,,,,,,MD,3,0,Md.,US
Fri Mar  6 20:33:34 PST 2020,1583555614,NZL,New Zealand,New Zealand,,-44.63,168.376,True,True,True,,JHU dashboard,4,,Mar. 6,True,True,New Zealand,top,,,,,,,New Zealand,,4,0,,
Fri Mar  6 20:33:34 PST 2020,1583555614,USA,,US,Florida,27.664827,-81.515754,True,,,,,,,,,,,,,,,,,,,FL,4,0,Fla.,US
Fri Mar  6 20:33:34 PST 2020,1583555614,PHL,Philippines,Philippines,,12.88,121.774,True,True,True,,JHU issue,3,,Mar. 6,,,Philippines,right,True,,,,,,Philippines,,5,1,,
Fri Mar  6 20:33:34 PST 2020,1583555614,SAU,Saudi Arabia,Saudi Arabia,,23.886,45.079,True,True,True,,JH dashboard but not sheet,1,,Mar. 3,,,Saudi Arabia,,,,,,,,Saudi Arabia,,5,0,,
Fri Mar  6 20:33:34 PST 2020,1583555614,POL,Poland,Poland,,51.919,19.145,True,True,True,,JHU issue,1,,Mar. 4,,,Poland,,,,,,,,Poland,,5,0,,
Fri Mar  6 20:33:34 PST 2020,1583555614,USA,,US,Illinois,40.633125,-89.398528,True,,,,,,,,,,,,,,,,,,,IL,5,0,Ill.,US
Fri Mar  6 20:33:34 PST 2020,1583555614,AZE,Azerbaijan,Azerbaijan,,40.143,47.577,True,True,True,,,,,,,,Azerbaijan,,,,,,,,Azerbaijan,,6,0,,
Fri Mar  6 20:33:34 PST 2020,1583555614,BLR,Belarus,Belarus,,53.71,27.953,True,True,True,,JH dashboard but not sheet,1,,Mar. 3,,,Belarus,,,,,,,,Belarus,,6,0,,
Fri Mar  6 20:33:34 PST 2020,1583555614,MEX,Mexico,Mexico,,23.635,-102.553,True,True,True,,,,,,True,True,Mexico,right,,,,,,,Mexico,,6,0,,
Fri Mar  6 20:33:34 PST 2020,1583555614,PAK,Pakistan,Pakistan,,30.375,69.345,True,True,True,,,,,,,,Pakistan,,,,,,,,Pakistan,,6,0,,
Fri Mar  6 20:33:34 PST 2020,1583555614,SVN,Slovenia,Slovenia,,46.151,14.995,True,True,True,,,,,,,,Slovenia,,,,,,,,Slovenia,,7,0,,
Fri Mar  6 20:33:34 PST 2020,1583555614,AUS,,Australia,South Australia,-34.93,138.61,True,,,,,,,,,,Australia,,,,,,,,South Australia (Australia),,7,0,,
Fri Mar  6 20:33:34 PST 2020,1583555614,QAT,Qatar,Qatar,,25.343,50.657,True,True,True,,,,,,,,Qatar,,,,,,,,Qatar,,8,0,,
Fri Mar  6 20:33:34 PST 2020,1583555614,USA,,US,Massachusetts,42.138477,-69.3,True,,,,,,,,,,,,,,,,,,,MA,8,0,Mass.,US
Fri Mar  6 20:33:34 PST 2020,1583555614,ROU,Romania,Romania,,45.943,24.967,True,True,True,,,,,,,,Romania,,,,,,,,Romania,,9,0,,
Fri Mar  6 20:33:34 PST 2020,1583555614,EST,Estonia,Estonia,,58.595,25.014,True,True,True,,JHU issue,3,,Mar. 6,,,Estonia,,,,,,,,Estonia,,10,0,,
Fri Mar  6 20:33:34 PST 2020,1583555614,MAC,Macau,Macau,Macau,22.199,113.544,True,True,False,,,,,,,,Macau,,,,,,,,Macau (Macau),,10,0,,
Fri Mar  6 20:33:34 PST 2020,1583555614,AUS,,Australia,Victoria,-36.56,143.25,True,,,,,,,,,,Australia,,,,,,,,Victoria (Australia),,10,0,,
Fri Mar  6 20:33:34 PST 2020,1583555614,HRV,Croatia,Croatia,,45.1,15.2,True,True,True,,,,,,,,Croatia,,,,,,,,Croatia,,11,0,,
Fri Mar  6 20:33:34 PST 2020,1583555614,BRA,Brazil,Brazil,,-14.235,-51.925,True,True,True,,JHU,4,,Mar. 6,True,True,Brazil,,,,,,,,Brazil,,13,0,,
Fri Mar  6 20:33:34 PST 2020,1583555614,ECU,Ecuador,Ecuador,,-1.831,-78.183,True,True,True,,,,,,,,Ecuador,,,,,,,,Ecuador,,13,0,,
Fri Mar  6 20:33:34 PST 2020,1583555614,RUS,Russia,Russia,,61.524,105.319,True,True,True,,,,,,True,True,Russia,,,,,,,,Russia,,13,0,,
Fri Mar  6 20:33:34 PST 2020,1583555614,PRT,Portugal,Portugal,,39.4,-8.224,True,True,True,,,,,,,,Portugal,,,,,,,,Portugal,,13,0,,
Fri Mar  6 20:33:34 PST 2020,1583555614,AUS,,Australia,Queensland,-20.918,142.703,True,,,,,,,,,,Australia,,,,,,,,Queensland (Australia),,13,0,,
Fri Mar  6 20:33:34 PST 2020,1583555614,USA,,US,Nebraska,41.492537,-99.901813,True,,,,,,,,,,,,,,,,,,,NE,14,0,Neb.,US
Fri Mar  6 20:33:34 PST 2020,1583555614,EGY,Egypt,Egypt,,26.821,30.802,True,True,True,,"JHU has it on the dashboard, but somehow not in the sheet.",3,,Mar. 6,True,True,Egypt,,,,,,,,Egypt,,15,0,,
Fri Mar  6 20:33:34 PST 2020,1583555614,FIN,Finland,Finland,,61.924,25.748,True,True,True,,,,,,,,Finland,,,,,,,,Finland,,15,0,,
Fri Mar  6 20:33:34 PST 2020,1583555614,OMN,Oman,Oman,,21.513,55.923,True,True,True,,,,,,,,Oman,,,,,,,,Oman,,16,0,,
Fri Mar  6 20:33:34 PST 2020,1583555614,PSE,West Bank and Gaza,Palestine,,31.952,35.233,True,True,False,,https://www.jpost.com/Israel-News/Palestinian-Authority-reports-multiple-suspected-coronavirus-cases-619845,7,,Mar. 5,,,Palestine,,,,,,,,Palestine,,16,0,,
Fri Mar  6 20:33:34 PST 2020,1583555614,VNM,Vietnam,Vietnam,,14.058,108.277,True,True,True,,,,,,,,Vietnam,right,,,,,,,Vietnam,,16,0,,
Fri Mar  6 20:33:34 PST 2020,1583555614,DZA,Algeria,Algeria,,28.034,1.66,True,True,True,,,,,,True,True,Algeria,,,,,,,,Algeria,,17,0,,
Fri Mar  6 20:33:34 PST 2020,1583555614,CZE,Czech Republic,Czech Republic,,49.817,15.473,True,True,True,,,,,,,,Czech Republic,,,,,Czechia,,,Czech Republic,,18,0,,
Fri Mar  6 20:33:34 PST 2020,1583555614,IRL,Ireland,Ireland,,53.413,-8.244,True,True,True,,,,,,,,Ireland,,,,,,,,Ireland,,18,0,,
Fri Mar  6 20:33:34 PST 2020,1583555614,CHN,,Mainland China,Qinghai,35.39,93.99,True,,,,,,,,,,Mainland China,,,,,,,,Qinghai (Mainland China),,18,0,,
Fri Mar  6 20:33:34 PST 2020,1583555614,USA,,US,Texas,31.968599,-99.901813,True,,,,,,,,,,,,,,,,,,,TX,19,0,Texas,US
Fri Mar  6 20:33:34 PST 2020,1583555614,ISR,Israel,Israel,,33,34.85,True,True,True,,,,,,True,True,Israel,,,,,,,,Israel,,21,0,,
Fri Mar  6 20:33:34 PST 2020,1583555614,SMR,San Marino,San Marino,,43.942,12.458,True,True,True,,,,,,,,San Marino,,,,,,,,San Marino,,21,1,,
Fri Mar  6 20:33:34 PST 2020,1583555614,CAN,,Canada,British Columbia,54.84,-125.1,True,,,,,,,,,,Canada,,,,,,,,British Columbia (Canada),,21,0,,
Fri Mar  6 20:33:34 PST 2020,1583555614,LBN,Lebanon,Lebanon,,33.855,35.862,True,True,True,,,,,,,,Lebanon,,,,,,,,Lebanon,,22,0,,
Fri Mar  6 20:33:34 PST 2020,1583555614,DNK,Denmark,Denmark,,56.264,9.502,True,True,True,,,,,,,,Denmark,,,,,,,,Denmark,,23,0,,
Fri Mar  6 20:33:34 PST 2020,1583555614,CAN,,Canada,"Toronto, ON",51.4,-87.12,True,,,,,,,,,,Canada,,,,,,,,"Toronto, ON (Canada)",,24,0,,
Fri Mar  6 20:33:34 PST 2020,1583555614,AUS,,Australia,New South Wales,-32.74,145.56,True,,,,,,,,,,Australia,,,,,,,,New South Wales (Australia),,26,1,,
Fri Mar  6 20:33:34 PST 2020,1583555614,ARE,U.A.E.,United Arab Emirates,,23.424,53.848,True,True,True,,,,,,,,United Arab Emirates,,,,,UAE,,,United Arab Emirates,,29,0,,
Fri Mar  6 20:33:34 PST 2020,1583555614,IND,India,India,,20.594,78.963,True,True,True,,,,,,True,True,India,top,,,,,,,India,,31,0,,
Fri Mar  6 20:33:34 PST 2020,1583555614,IRQ,Iraq,Iraq,,33.223,43.679,True,True,True,,,,,,,,Iraq,,,,,,,,Iraq,,40,3,,
Fri Mar  6 20:33:34 PST 2020,1583555614,ISL,Iceland,Iceland,,64.963,-19.021,True,True,True,,,,,,True,True,Iceland,top,,,,,,,Iceland,,43,0,,
Fri Mar  6 20:33:34 PST 2020,1583555614,USA,,US,New York,43,-75.12,True,,,,,,,,,,,,,,,,,,,NY,44,0,N.Y.,US
Fri Mar  6 20:33:34 PST 2020,1583555614,GRC,Greece,Greece,,39.074,21.824,True,True,True,,Reuters,31,,Mar. 5,,,Greece,,,,,,,,Greece,,45,0,,
Fri Mar  6 20:33:34 PST 2020,1583555614,TWN,Taiwan,Taiwan,Taiwan,23.698,120.961,True,True,False,,,,,,,,Taiwan,top,,,,,,,Taiwan (Taiwan),,45,1,,
Fri Mar  6 20:33:34 PST 2020,1583555614,THA,Thailand,Thailand,,15.87,100.993,True,True,True,,,,,,,,Thailand,top,,,,,,,Thailand,,48,1,,
Fri Mar  6 20:33:34 PST 2020,1583555614,AUT,Austria,Austria,,47.516,14.55,True,True,True,,,,,,,,Austria,,,,,,,,Austria,,55,0,,
Fri Mar  6 20:33:34 PST 2020,1583555614,KWT,Kuwait,Kuwait,,29.312,47.482,True,True,True,,,,,,,,Kuwait,,,,,,,,Kuwait,,58,0,,
Fri Mar  6 20:33:34 PST 2020,1583555614,BHR,Bahrain,Bahrain,,25.93,50.638,True,True,True,,,,,,,,Bahrain,,,,,,,,Bahrain,,60,0,,
Fri Mar  6 20:33:34 PST 2020,1583555614,CHN,,Mainland China,Inner Mongolia,43.61,113.35,True,,,,,,,,,,Mainland China,,,,,,,,Inner Mongolia (Mainland China),,75,1,,
Fri Mar  6 20:33:34 PST 2020,1583555614,CHN,,Mainland China,Ningxia,37.3,104.85,True,,,,,,,,,,Mainland China,,,,,,,,Ningxia (Mainland China),,75,0,,
Fri Mar  6 20:33:34 PST 2020,1583555614,CHN,,Mainland China,Xinjiang,40.06,87.7,True,,,,,,,,,,Mainland China,,,,,,,,Xinjiang (Mainland China),,76,3,,
Fri Mar  6 20:33:34 PST 2020,1583555614,USA,,US,California,36.778261,-119.417932,True,,,,,,,,,,,,,,,,,,,CA,79,1,Calif.,US
Fri Mar  6 20:33:34 PST 2020,1583555614,MYS,Malaysia,Malaysia,,4.21,101.976,True,True,True,,,,,,,,Malaysia,right,True,,,,,,Malaysia,,83,0,,
Fri Mar  6 20:33:34 PST 2020,1583555614,USA,,US,Washington,46.751074,-120.740139,True,,,,,,,,,,,,,,,,,,,WA,84,14,Wash.,US
Fri Mar  6 20:33:34 PST 2020,1583555614,CHN,,Mainland China,Jilin,43.85,126.5,True,,,,,,,,,,Mainland China,,,,,,,,Jilin (Mainland China),,93,1,,
Fri Mar  6 20:33:34 PST 2020,1583555614,SWE,Sweden,Sweden,,60.128,18.644,True,True,True,,,,,,,,Sweden,,,,,,,,Sweden,,101,0,,
Fri Mar  6 20:33:34 PST 2020,1583555614,HKG,Hong Kong,Hong Kong,Hong Kong,22.396,114.109,True,True,False,,,,,,,,Hong Kong,,,,,,,,Hong Kong (Hong Kong),,107,2,,
Fri Mar  6 20:33:34 PST 2020,1583555614,NOR,Norway,Norway,,60.472,8.469,True,True,True,,,,,,,,Norway,,,True,,,,,Norway,,108,0,,
Fri Mar  6 20:33:34 PST 2020,1583555614,BEL,Belgium,Belgium,,50.504,4.47,True,True,True,,,,,,,,Belgium,,,,,,,,Belgium,,109,0,,
Fri Mar  6 20:33:34 PST 2020,1583555614,CHN,,Mainland China,Gansu,40.39,96.81,True,,,,,,,,,,Mainland China,,,,,,,,Gansu (Mainland China),,119,2,,
Fri Mar  6 20:33:34 PST 2020,1583555614,CHN,,Mainland China,Liaoning,41.3,121.9,True,,,,,,,,,,Mainland China,,,,,,,,Liaoning (Mainland China),,125,1,,
Fri Mar  6 20:33:34 PST 2020,1583555614,NLD,Netherlands,Netherlands,,52.133,5.291,True,True,True,,https://twitter.com/GertvanderHoek/status/1235578413198475264?s=20,82,,Mar. 5,,,Netherlands,,,,,,,,Netherlands,,128,1,,
Fri Mar  6 20:33:34 PST 2020,1583555614,SGP,Singapore,Singapore,,1.352,103.82,True,True,True,,,,,,True,True,Singapore,right,,,,,,,Singapore,,130,0,,
Fri Mar  6 20:33:34 PST 2020,1583555614,CHN,,Mainland China,Shanxi,37.64,110.15,True,,,,,,,,,,Mainland China,,,,,,,,Shanxi (Mainland China),,133,0,,
Fri Mar  6 20:33:34 PST 2020,1583555614,CHN,,Mainland China,Tianjin,39.13,117.01,True,,,,,,,,,,Mainland China,,,,,,,,Tianjin (Mainland China),,136,3,,
Fri Mar  6 20:33:34 PST 2020,1583555614,CHN,,Mainland China,Guizhou,26.91,105.48,True,,,,,,,,,,Mainland China,,,,,,,,Guizhou (Mainland China),,146,2,,
Fri Mar  6 20:33:34 PST 2020,1583555614,GBR,U.K.,UK,,55.378,-3.436,True,True,True,,,,,,True,True,UK,,,True,,,the United Kingdom,,UK,,163,2,,
Fri Mar  6 20:33:34 PST 2020,1583555614,CHN,,Mainland China,Hainan,19.15,109.37,True,,,,,,,,,,Mainland China,,,,,,,,Hainan (Mainland China),,168,6,,
Fri Mar  6 20:33:34 PST 2020,1583555614,CHN,,Mainland China,Yunnan,24.64,101.29,True,,,,,,,,,,Mainland China,,,,,,,,Yunnan (Mainland China),,174,2,,
Fri Mar  6 20:33:34 PST 2020,1583555614,CHE,Switzerland,Switzerland,,46.818,8.228,True,True,True,,,,,,,,Switzerland,,,,,,,,Switzerland,,214,1,,
Fri Mar  6 20:33:34 PST 2020,1583555614,CHN,,Mainland China,Shaanxi,35.63,106.12,True,,,,,,,,,,Mainland China,,,,,,,,Shaanxi (Mainland China),,245,1,,
Fri Mar  6 20:33:34 PST 2020,1583555614,CHN,,Mainland China,Guangxi,23.72,108.66,True,,,,,,,,,,Mainland China,,,,,,,,Guangxi (Mainland China),,252,2,,
Fri Mar  6 20:33:34 PST 2020,1583555614,CHN,,Mainland China,Fujian,25.92,117.17,True,,,,,,,,,,Mainland China,,,,,,,,Fujian (Mainland China),,296,1,,
Fri Mar  6 20:33:34 PST 2020,1583555614,CHN,,Mainland China,Hebei,38.48,115.24,True,,,,,,,,,,Mainland China,,,,,,,,Hebei (Mainland China),,318,6,,
Fri Mar  6 20:33:34 PST 2020,1583555614,CHN,,Mainland China,Shanghai,31.19,121.48,True,,,,,,,,,,Mainland China,,,,,,,,Shanghai (Mainland China),,342,3,,
Fri Mar  6 20:33:34 PST 2020,1583555614,ESP,Spain,Spain,,40.464,-3.749,True,True,True,,,,,,,,Spain,,,True,,,,,Spain,,400,5,,
Fri Mar  6 20:33:34 PST 2020,1583555614,CHN,,Mainland China,Beijing,39.9,116.3,True,,,,,,,,,,Mainland China,count_only,,,,,,,Beijing (Mainland China),,422,8,,
Fri Mar  6 20:33:34 PST 2020,1583555614,CHN,,Mainland China,Heilongjiang,46.8,127.07,True,,,,,,,,,,Mainland China,,,,,,,,Heilongjiang (Mainland China),,481,13,,
Fri Mar  6 20:33:34 PST 2020,1583555614,CHN,,Mainland China,Sichuan,30.8,103.8,True,,,,,,,,,,Mainland China,,,,,,,,Sichuan (Mainland China),,539,3,,
Fri Mar  6 20:33:34 PST 2020,1583555614,CHN,,Mainland China,Chongqing,29.5,106.4,True,,,,,,,,,,Mainland China,,,,,,,,Chongqing (Mainland China),,576,6,,
Fri Mar  6 20:33:34 PST 2020,1583555614,CHN,,Mainland China,Jiangsu,33.15,119.58,True,,,,,,,,,,Mainland China,,,,,,,,Jiangsu (Mainland China),,631,0,,
Fri Mar  6 20:33:34 PST 2020,1583555614,FRA,France,France,,46.228,2.214,True,True,True,,Constant Meheut/RPP,423,7,Mar. 5,True,True,France,,,True,,,,,France,,653,9,,
Fri Mar  6 20:33:34 PST 2020,1583555614,DEU,Germany,Germany,,51.166,10.452,True,True,True,,,,,,True,True,Germany,,,True,,,,-30,Germany,,670,0,,
Fri Mar  6 20:33:34 PST 2020,1583555614,CHN,,Mainland China,Shandong,36.4,116.5,True,,,,,,,,,,Mainland China,,,,,,,,Shandong (Mainland China),,758,6,,
Fri Mar  6 20:33:34 PST 2020,1583555614,CHN,,Mainland China,Jiangxi,27.28,114.91,True,,,,,,,,,,Mainland China,,,,,,,,Jiangxi (Mainland China),,935,1,,
Fri Mar  6 20:33:34 PST 2020,1583555614,CHN,Mainland China,Mainland China,Anhui,32,116.1,True,,,,,,,,,,Mainland China,,,,,,,,Anhui (Mainland China),,990,6,,
Fri Mar  6 20:33:34 PST 2020,1583555614,CHN,,Mainland China,Hunan,27.4,110.4,True,,,,,,,,,,Mainland China,,,,,,,,Hunan (Mainland China),,1018,4,,
Fri Mar  6 20:33:34 PST 2020,1583555614,JPN,Japan,Japan,,36.49,143,True,True,True,2,"NYT, includes 705 cruise ship + 360 in Japan from JHU",1065,8,Mar. 6,True,,Japan,top,,,,,,,Japan,,1065,8,,
Fri Mar  6 20:33:34 PST 2020,1583555614,CHN,,Mainland China,Zhejiang,29.1,120.1,True,,,,,,,,,,Mainland China,,,,,,,,Zhejiang (Mainland China),,1215,1,,
Fri Mar  6 20:33:34 PST 2020,1583555614,CHN,,Mainland China,Henan,33.9,112.4,True,,,,,,,,,,Mainland China,,,,,,,,Henan (Mainland China),,1272,22,,
Fri Mar  6 20:33:34 PST 2020,1583555614,CHN,,Mainland China,Guangdong,22.9,112.4,True,,,,,,,,,,Mainland China,,,,,,,,Guangdong (Mainland China),,1352,7,,
Fri Mar  6 20:33:34 PST 2020,1583555614,ITA,Italy,Italy,,41.872,12.567,True,True,True,3,"Italy gov, http://www.protezionecivile.gov.it/documents/20182/1221364/Dati+Riepilogo+Nazionale+6marzo2020/6fb1c948-b21c-4cfd-9343-181c147df679",4636,197,Mar. 6,True,,Italy,,,True,,,,,Italy,,4636,197,,
Fri Mar  6 20:33:34 PST 2020,1583555614,IRN,Iran,Iran,,32.428,53.688,True,True,True,3,,,,,True,,Iran,,,,,,,,Iran,,4747,124,,
Fri Mar  6 20:33:34 PST 2020,1583555614,KOR,South Korea,South Korea,,35.908,127.767,True,True,True,3,,,,,True,,S. Korea,top,True,,,S. Korea,South Korea,-20,South Korea,,6593,42,,
Fri Mar  6 20:33:34 PST 2020,1583555614,CHN,,Mainland China,Hubei,32.05,110.5,True,,,,,,,,,,Mainland China,count_only,,,,,,,Hubei (Mainland China),,67592,2931,,
